,카테고리,회사명,대표자명,주소,홈페이지,전화번호,팩스번호,업종,설립일,lat,lng
0,육류,가나축산물유통,정성교,"경상북도 포항시 북구 용당로 24-21 (용흥동, 서부종합시장)",,054-274-4253, ,육류 도매업,2013-12-04,36.0302923,129.3582577
1,육류,가람유통,김승욱,경기도 용인시 기흥구 신구로54번길 5-7 (구갈동)106,,0312747894, ,육류 도매업,2013-09-03,37.2773515,127.1101103
2,육류,가흥,진종팔,부산광역시 사상구 사상로 557 (모라동),,051-304-9973,051-304-9976,육류 도매업,2002-02-07,35.1940102,128.9897914
3,육류,강남프라임,나상현,"서울특별시 강남구 삼성로 535 4층 402호(삼성동, 삼화빌딩)",,02-3444-6888,02-3443-4302,육류 도매업,2008-01-31,37.5096829,127.0546949
4,육류,견우마을,최낙명,서울특별시 강동구 성내동 549 2층,,02-479-2222,02-479-1975,육류 도매업,2003-01-21,37.5286128,127.1249762
5,육류,견우푸드,최낙명,경기도 광주시 곤지암읍 곤지암천로 149-41 (신대리),,02-479-2222,02-479-1975,육류 도매업,2005-03-17,37.3584287,127.3291966
6,육류,고기랑농업회사법인,이상,대전광역시 중구 성산로 11 (안영동) 으뜸원포크,,042-535-8852,042-535-8853,육류 도매업,2009-09-02,36.2906752,127.3800055
7,육류,고기연구소,전의선,서울특별시 성동구 고산자로 335-16 (마장동),,02-2292-1700,02-2292-5802,육류 도매업,2017-04-26,37.5697239,127.0368893
8,육류,교촌에프앤비,윤진호,경상북도 칠곡군 가산면 송신로 78,kyochonfnb.com,031-371-3500,031-371-3696,육류 도매업,1999-11-12,36.0932755,128.5347271
9,육류,국제식품,김환영,인천광역시 서구 백범로630번길 34 (가좌동),koreameat.net/,032-573-8181,032-573-8180,육류 도매업,1998-02-06,37.4809299,126.6867951
10,육류,국제식품,정정교,"부산광역시 사상구 낙동대로 1498 (삼락동, 주식회사국제식품)",,051-304-4477,051-301-5168,육류 도매업,1994-12-15,35.1922466,128.9829228
11,육류,굿모닝푸드,정진관,경기도 하남시 샘재로 76 (천현동)굿모닝푸드,www.goodmorningmeatshop.com,031-793-6676,031-793-6694,육류 도매업,2006-08-01,37.5280489,127.2106962
12,육류,글로벌미트컴퍼니,김연포,서울특별시 성동구 마장로31길 40 (마장동) 112호,,02-2299-9200,02-2299-3922,육류 도매업,2011-12-01,37.5697429,127.0384113
13,육류,금대유통,최회신,서울특별시 금천구 범안로15길 26 1층 (독산동),,02-894-9575, ,육류 도매업,2007-08-30,37.4677557,126.8929891
14,육류,깐부,김승일,"서울특별시 강남구 도산대로58길 16 (청담동, 청담빌딩)",www.kkanbu.co.kr,02-1544-9226,031-889-5068,육류 도매업,2008-02-18,37.5222431,127.0412593
15,육류,나진코퍼레이션,이수영,"서울특별시 용산구 청파로 109 507호 (한강로3가, 나진전자월드빌딩)",,02-703-2537,02-704-3025,육류 도매업,1997-05-07,37.5336432,126.9633505
16,육류,남상푸드,최중원,부산광역시 사상구 사상로 561 (모라동),,051-714-5300,051-714-5305,육류 도매업,2013-10-22,35.1944696,128.9898761
17,육류,네이쳐스푸드,정문석,경기도 광주시 광남안로129번길 19 (목동),www.naturesfood.co.kr,031-765-8221,031-765-8223,육류 도매업,2015-11-03,37.3832881,127.2160014
18,육류,농업회사법인글로미트,신임호,"서울특별시 성동구 무학로14길 27 (하왕십리동, JC빌딩) 301,302호",,02-3395-7801,02-3395-7803,육류 도매업,2006-05-01,37.56833170000001,127.0331569
19,육류,농업회사법인금천,조흥연,경기도 안양시 만안구 박달동 683-2,www.ekcm.co.kr,0314452584,0314418018,육류 도매업,2002-04-06,37.4058445,126.8855681
20,육류,농업회사법인내쇼날푸드,권기현,"경기도 하남시 하남대로 947 (풍산동, 하남테크노밸리U1CENTER) D동 305,306호",www.nationalfood.co.kr,0222950900,0222950901,육류 도매업,1999-06-25,37.5453429,127.1936131
21,육류,농업회사법인다하누,최계경,강원도 영월군 주천면 주천시장길 22 (주천리) 1232-4,www.dahanoo.com,033-372-2256,033-372-2256,육류 도매업,2009-05-18,37.2709647,128.2666433
22,육류,농업회사법인대성웰그로,김영숙,"경기도 성남시 수정구 위례서일로 26 (창곡동, 라크리움) 804, 805, 806호",,031-751-3400, ,육류 도매업,2010-04-01,37.4647658,127.1386705
23,육류,농업회사법인선봉프라임,김종철,경기도 성남시 수정구 수정남로 120 (신흥동),,031-732-5800,031-732-5805,육류 도매업,2010-05-25,37.44684910000001,127.146461
24,육류,농업회사법인순우리,이조영,경기도 광주시 상태길81번길 31 (신현동),,0317266400, ,육류 도매업,2001-08-31,37.3530975,127.1463848
25,육류,농업회사법인영식품,최시영,대전광역시 서구 우명길 33-8 (우명동),,042-581-2144,042-581-2145,육류 도매업,2014-09-22,36.2236012,127.2941626
26,육류,농업회사법인우리한우,김범수,경기도 광주시 곤지암읍 경충대로498번길 131 (곤지암리),,0317686394,0317684852,육류 도매업,2016-01-11,37.339975,127.3628035
27,육류,농업회사법인원미트푸드,장정호,경기도 구리시 인창2로 77 (인창동) 전층,onemeatfood.modoo.at/,02-1661-5474,02-476-4166,육류 도매업,2016-04-01,37.6088181,127.1287365
28,육류,다커머스에프앤씨,오강석,서울특별시 성동구 도선동 신한넥스텔 1210호,,070-4348-2025,-,육류 도매업,2008-01-04,37.5637028,127.0356862
29,육류,대명미트,박정현,서울특별시 성동구 마장동 500 - 6,,02-2294-9771,02-2294-9733,육류 도매업,2000-04-11,37.5691597,127.0385378
30,육류,"대상네트웍스(DAESANGNetworksCo.,Ltd.)",최성수,"서울특별시 성동구 청계천로12가길 68 (마장동, 창원빌딩)",daesangdsn.com/,02-2297-8886,02-2297-8887,육류 도매업,2003-11-04,37.5709242,127.037297
31,육류,대웅엠엔에프,손병두,경상남도 김해시 삼방동 104-7,,055-345-5970, ,육류 도매업,2001-02-05,35.2403027,128.9121536
32,육류,대원벨리,김정훈,부산광역시 사상구 낙동대로1530번길 29 (삼락동),,0518173450,0518183450,육류 도매업,2012-03-01,35.19397060000001,128.9863086
33,육류,대인계육유통,"현철호, 현광식",경기도 양주시 백석읍 중앙로 164-8 (복지리),,031-879-9072, ,육류 도매업,2009-01-01,37.7935495,126.9941006
34,육류,대전맥시칸,유정헌,충청북도 청원군 현도면매봉리 148번지,,043-260-6820,043-260-6819,육류 도매업,1994-04-19,36.4767146,127.4257675
35,육류,더그린하우스,이지배,경상남도 고성군 고성읍 월평로 169 (율대리),,070-4370-3095,02-555-5084,육류 도매업,2006-03-27,34.9663127,128.3499599
36,육류,더베스트미트,박선희,경기도 용인시 기흥구 농서로 51 (농서동) 3층,,0222815595,0222816593,육류 도매업,2021-01-06,37.2226956,127.0915445
37,육류,덕정무역,최덕순,서울특별시 서초구 서초동 1536-14 서울빌딩 4층,www.duckjung.com,02-598-4030,02-598-8480,육류 도매업,1996-06-22,37.4862883,127.009986
38,육류,덕호,진규황,부산광역시 사상구 사상로 557 (모라동),,0513012777,0513049970,육류 도매업,2011-06-27,35.1940102,128.9897914
39,육류,도드람에프씨,김운경,"경기도 안성시 일죽면 일생로 185-11 (금산리, 도드람엘피씨공사), 도드람에프씨",bonrae.co.kr/,02-2138-5323,070-8677-8184,육류 도매업,2012-07-01,37.0740208,127.4947944
40,육류,동아푸드,김영욱,"서울특별시 영등포구 63로 50 54층 (여의도동, 63한화생명빌딩)",www.dongahfood.com,02-514-3177,02-514-5482,육류 도매업,2002-07-02,37.5197898,126.9400579
41,육류,동암비티,최준식,서울특별시 광진구 구의동 546-4 테크노마트빌딩 2711호,www.dongahm.com,3424-2500,3424-4308,육류 도매업,2002-08-23,37.5356993,127.095765
42,육류,디에이치통상,한대중,경기도 하남시 서하남로43번길 160-1 (감북동),,02-477-2980,02-477-2988,육류 도매업,2012-09-25,37.5204222,127.1534747
43,육류,또봉이에프앤에스,최종성,"경기도 용인시 기흥구 죽전로 11 7층(보정동, 미래시티)",ttobongee.com,031-242-6877,031-889-3680,육류 도매업,2015-03-13,37.3207514,127.1098711
44,육류,라온축산유통,문우철,서울특별시 성동구 마장동 470-4 대영빌딩 3층,,02-2291-9494,02-2299-3640,육류 도매업,2006-03-02,37.571228,127.0375522
45,육류,레인보우미트,김성수,경기도 용인시 기흥구 구성로78번길 4 레인보우빌딩 5층(언남동),,031-282-0379,031-624-0013,육류 도매업,2010-07-23,37.29402049999999,127.1181699
46,육류,렉스팜,"박성우, 이인성",경기도 안성시 일죽면 금산리 596-1,www.lexfarm.com,031-671-9888,031-671-9777,육류 도매업,1999-07-14,37.0737132,127.4932242
47,육류,리천,이영종,"경기도 이천시 경충대로 2773 (관고동, (주)리천)",,01036343194,0507-0315-3860,육류 도매업,2011-10-26,37.2845396,127.4295924
48,육류,마밴,신진희,경상남도 김해시 인제로 436 2층(삼방동),,051-304-4478, ,육류 도매업,2015-03-05,35.2665568,128.8961656
49,육류,마포미트,정환삼,서울특별시 성동구 마장동 818 현대아파트상가 306호,,02-2295-7795,02-2295-7784,육류 도매업,2004-02-18,37.5694591,127.0425481
50,육류,맥시칸산업,김한,부산광역시 강서구 대저1동 2323,.,051-304-6000,051-941-6007,육류 도매업,1999-08-23,35.2105055,128.9823582
51,육류,멕시카나,최광은,서울특별시 송파구 송파동 185-2,mexicana.co.kr,02-420-9995,02-417-1865,육류 도매업,2000-07-02,37.4993184,127.1159498
52,육류,멘토미트,김병례,"서울특별시 성동구 고산자로 284 (행당동, 성동샤르망)421호",,02-2292-3331,02-2292-3379,육류 도매업,2006-07-26,37.5649229,127.0368108
53,육류,모닝에프앤씨,임화영,"서울특별시 성동구 마장로42길 14 201호 (마장동, 세림아파트)",,01041716380, ,육류 도매업,2019-11-06,37.5652954,127.0451834
54,육류,모아에프앤비,조철유,"서울특별시 강동구 양재대로98길 29 (둔촌동, 삼성아트빌) 2층 201호",,02-6423-3710, ,육류 도매업,2016-03-23,37.5306305,127.1392661
55,육류,미스터해우,차대주,"경기도 부천시 옥산로 7 (중동, 리첸시아중동) A동 222호",,032-614-2315, ,육류 도매업,2007-11-16,37.4950891,126.7794529
56,육류,미트라인,이기웅,경기도 안산시 상록구 양지편2길 44 (이동)101호,,031-409-1941,031-409-1943,육류 도매업,2001-10-24,37.3111589,126.8493705
57,육류,미트스파클,이춘화,"서울특별시 성동구 마장로 273 , 상가동 206호 (마장동, 삼성아파트)",,070-7599-2826, ,육류 도매업,2020-03-06,37.5660391,127.0400744
58,육류,미트엠트레이딩,한광복,경기도 용인시 기흥구 고매동 548,www.meataem.com,031-282-2177,031-287-2176,육류 도매업,2002-07-26,37.228325,127.1046221
59,육류,미트올,박순광,서울특별시 성동구 청계천로10다길 19 (마장동),,02-2297-8662, ,육류 도매업,2011-07-01,37.5695326,127.0344354
60,육류,미트웨이브,유지원,"서울특별시 성동구 청계천로10가길 72-37 (마장동), 1층",,02-421-5885, ,육류 도매업,2002-01-23,37.5713931,127.0368552
61,육류,미트이노베이션,이용진,"경기도 용인시 기흥구 공세로 16 (고매동), 2층 5호",,031-281-1220,031-285-1223,육류 도매업,2018-06-07,37.228749,127.1031637
62,육류,미트카운티,이수환,"서울특별시 성동구 고산자로 253 (도선동, 다남매Tower) 1101호",,0222826881,0222996882,육류 도매업,2012-03-23,37.5630927,127.0335893
63,육류,미트패밀리,김민호,경기도 광명시 밤일안로14번길 9 (하안동),,02-866-4791,02-866-4795,육류 도매업,2005-07-01,37.4551646,126.8653501
64,육류,미트플러스,김정훈,부산광역시 부산진구 동평로405번길 63 (양정동),,07074341825, ,육류 도매업,2012-05-16,35.176391,129.0711811
65,육류,백두대간영농조합법인,김도영,"강원도 강릉시 정원로 54 (교동, 주니어타운 9층)",,033-644-4467,033-644-1944,육류 도매업,2004-08-26,37.7624741,128.8759246
66,육류,베스트미트,박성원,서울특별시 성동구 마장로33길 73 그린빌딩 201호,,02-2281-1181,02-2281-6593,육류 도매업,2000-08-08,37.5712383,127.0397038
67,육류,보담,이승수,"강원도 원주시 저금어지길 456 (가현동, 강원엘피씨)",,070-5003-6505,033-644-1944,육류 도매업,1996-08-17,37.3907815,127.9345767
68,육류,보보스미트트레이딩,김영태,서울특별시 성동구 마장로33길 73 동호빌딩 1층 (마장동),,02-2291-4791,02-2299-4791,육류 도매업,2004-01-27,37.5712383,127.0397038
69,육류,보성패션,임동신,부산광역시 부산진구 범천1동 839-12,,051-643-2411,051-632-2591,육류 도매업,1989-07-01,35.145525,129.0601475
70,육류,부강에프에스,홍기훈,"경기도 용인시 기흥구 동탄기흥로 776 (고매동, 강동냉장)",,010-3265-1213,02-3443-4302,육류 도매업,2013-05-21,37.2275075,127.1032869
71,육류,부민축산,"고인성, 김성태",부산광역시 사상구 사상로565번길 19 (모라동),,051-992-0407,051-992-0406,육류 도매업,2015-07-01,35.1945467,128.9891077
72,육류,블랙쎄븐,이상수,경기도 용인시 기흥구 기흥단지로136번길 25-10,,031-275-3035, ,육류 도매업,2009-07-01,37.2237128,127.1128544
73,육류,비앤피아이앤씨,조학철,서울특별시 강남구 역삼동 837-11 유니온센타 1610호,,02-553-6130,02-553-6132,육류 도매업,2011-03-02,37.4910282,127.0316127
74,육류,비에프인터내셔날,김태형,경기도 성남시 수정구 신촌로 37 (신촌동),,02-412-2582,031-752-2584,육류 도매업,2004-11-03,37.4592257,127.1033163
75,육류,사세,김광선,"충청북도 진천군 덕산면 산수산단3로 11 (산수리, (주)사세)",,031-340-3018,031-624-5692,육류 도매업,1997-09-01,36.8824152,127.509247
76,육류,서던퍼시픽,김중인,부산광역시 부산진구 부전동 474-80 유원빌딩1110호,,051-817-3727,051-816-9081,육류 도매업,1997-01-06,35.159439,129.0555717
77,육류,선영축산농업회사법인,김현애,부산광역시 사상구 모라로 39 (모라동)  (주)선영축산농업회사법인,pabcd0308.hanmail.net,051-302-7771,051-305-3074,육류 도매업,2002-01-01,35.0835319,128.978289
78,육류,선우프레시,"조민호, 조제효","경기도 성남시 분당구 미금일로90번길 36-9 (구미동, 앵거스박빌딩) 5층 일부",,15775259,0234711558,육류 도매업,2011-12-08,37.3493226,127.1108126
79,육류,선화기업,김기봉,"서울특별시 성동구 고산자로 302 202호(마장동, 금천빌딩)",,02-2298-4503,02-2298-8294,육류 도매업,2010-07-19,37.5665959,127.0369819
80,육류,성림미트앤푸드,이덕제,서울특별시 용산구 주성동 39-1,www.readytocook.co.kr,02-790-5319,02-749-5311,육류 도매업,1996-08-01,37.522345,126.9993474
81,육류,성우무역,박우영,서울특별시 서초구 강남대로 433 (서초동) 성우빌딩 5층,,02-533-5640,02-533-5642,육류 도매업,2012-09-06,37.5010214,127.0256159
82,육류,성파,서운석,서울특별시 송파구 잠실동 35 트리지움 342동 2203호,,025991311,025996226,육류 도매업,1996-01-15,37.5098873,127.0895702
83,육류,세중,강용수,경기도 광주시 진토길 13 (목동),www.se-joong.kr,0317976200,0317976230,육류 도매업,2009-03-20,37.38212559999999,127.2141651
84,육류,수월한,임상훈,경상북도 문경시 신기산단2길 21 (신기동),,0539648166, ,육류 도매업,2013-06-17,36.642689,128.1816609
85,육류,시티유통,노호준,경기도 용인시 구성읍상하리 351,,031-282-0348,031-281-7445,육류 도매업,2003-08-29,37.2938155,127.137319
86,육류,신돈축산유통,윤경자,"경기도 안산시 단원구 만해로169번길 34 (신길동, 주식회사신돈축산유통)",,031-432-9241,031-432-9242,육류 도매업,2018-08-01,37.3261755,126.7596015
87,육류,신성유통,정웅연,경기도 수원시 권선구 권선동 1025-4,,031-235-5212,031-235-5211,육류 도매업,2001-01-02,37.2577629,127.0310047
88,육류,심우식품,"한운행, 한문갑",경상남도 김해시 분성로172번길 19 (외동),,051-301-9394,051-301-9390,육류 도매업,1998-09-10,35.22880200000001,128.8662561
89,육류,쎄븐,이상수,경기도 용인시 기흥구 고매동 518-8,www.sevengm.com,031-754-6660,031-754-6668,육류 도매업,2000-08-28,37.22504199999999,127.1020956
90,육류,쎄븐푸드,이상수,경기도 용인시 기흥구 동탄기흥로 748 3층(고매동),,031-285-0530, ,육류 도매업,2006-01-20,37.22504199999999,127.1020956
91,육류,씨앤케이무역,최흥진,인천광역시 서구 소담1로 36,,032-710-2065,032-577-02045,육류 도매업,2016-02-04,37.6111206,126.6305016
92,육류,아이델리,문병창,서울특별시 영등포구 영등포동 7가 94 - 46,www.ideli.co.kr,(02) 2678 - 7511,(02) 678 - 8701,육류 도매업,1994-12-07,37.5257254,126.9094017
93,육류,애그미트,진용구,경기도 성남시 분당구 대왕판교로 279 (궁내동),,031-717-1166,031-719-1166,육류 도매업,1998-11-02,37.3710493,127.1016425
94,육류,에스더블유컴퍼니,오희재,서울특별시 금천구 남부순환로112길 35 101 (가산동),,02-868-4791,02-866-4795,육류 도매업,2009-11-10,37.4773794,126.8940838
95,육류,에이스푸드림,강경성,경기도 시흥시 금오로190번길 48-5 (무지내동),,031-503-2500,031-503-2508,육류 도매업,2013-04-30,37.4232027,126.840335
96,육류,에이젯시스템,박정운,광주광역시 광산구 사암로 860-10 (도천동),,062-962-0300,062-962-0311,육류 도매업,2006-01-01,35.2131402,126.819891
97,육류,에이젯푸드,최중원,부산광역시 북구 사상로583번길 6 (구포동),,051)303-4464,051)301-4406,육류 도매업,1999-04-29,35.1964364,128.9901964
98,육류,에프엔프레시,최석문,"서울특별시 마포구 월드컵북로 396 (상암동, 누리꿈스퀘어) 16층",www.fnfresh.co.kr,02-3152-8088,02-6351-8088,육류 도매업,2017-05-31,37.5796548,126.8900812
99,육류,엔에스에프서울,최세현,"경기도 성남시 수정구 위례광장로 21-9 3010호 (창곡동, 위례우남역KCC웰츠타워)",,031-778-8977,031-778-8978,육류 도매업,2019-03-01,37.4652929,127.1401811
100,육류,엔에이치프라임미트,김동국,서울특별시 강남구 선릉로 616 드림타운1차 2층 (삼성동),,02-554-6062,02-554-6015,육류 도매업,2009-03-24,37.5118646,127.0435795
101,육류,오케이미트,홍승수,서울특별시 강남구 강남대로58길 42 오케이빌딩(도곡동),okmeat.com,02-3443-0053,02-3443-3090,육류 도매업,2000-06-09,37.49008810000001,127.0356408
102,육류,와가무역,유창우,"서울특별시 강남구 강남대로58길 42 1층(도곡동, 오케이빌딩)",,02-540-6588,02-540-6590,육류 도매업,2006-03-21,37.49008810000001,127.0356408
103,육류,와이엠케이에프앤비,김민정,"서울특별시 영등포구 국회대로 786 (여의도동, B&B타워) 10층",,02-786-7700,02-786-7501,육류 도매업,2015-01-20,37.5302992,126.9195773
104,육류,우성물류,김윤권,서울특별시 서초구 서초4동 1305-6 성우빌딩 4층,해당사항없음,(02)3482-3701,(02)3482-3702,육류 도매업,1965-03-26,37.49609969999999,127.0204674
105,육류,우진미트,김홍수,"경기도 성남시 분당구 정자일로 1 (금곡동, 코오롱트리폴리스1) C동 2611호",,0317284486,0317284499,육류 도매업,2019-07-19,37.35073,127.105435
106,육류,위드유컴퍼니,최용석,"서울특별시 성동구 청계천로10가길 76 (마장동, 위드유빌딩)",,070-4105-8501,02-2299-8501,육류 도매업,2015-03-24,37.5713081,127.0361602
107,육류,유토인터내셔날,김학진,경기도 광주시 초월읍 경충대로1127번길 43 (쌍동리) 306호,,0234441193,0234441194,육류 도매업,2009-10-08,37.37701089999999,127.2912395
108,육류,육대장,"이진수, 최형욱",서울특별시 마포구 양화로 164 유림빌딩 10층 (동교동),,02-334-4570,02-334-4560,육류 도매업,2013-01-25,37.5565333,126.9240596
109,육류,은복프라임미트,남명철,광주광역시 북구 저불로39번길 23 (용봉동),,062)5286600,062)5286608,육류 도매업,2002-04-25,35.1780282,126.8925194
110,육류,장나라미트,남필현,"서울특별시 강남구 봉은사로 129 (논현동, 거평타운) 412",,02-515-6441,02-546-6441,육류 도매업,2010-02-01,37.5060709,127.0281608
111,육류,장스푸드,장조웅,"서울특별시 서초구 매헌로 40 (양재동, (주)장스푸드60계)",,02-6213-0192, ,육류 도매업,2015-05-01,37.4644691,127.0344901
112,육류,정성과친절,김복래,"서울특별시 성동구 무학로14길 27 B01호 (하왕십리동, JC빌딩)",,02-2299-9915,02-2299-4005,육류 도매업,2004-12-15,37.56833170000001,127.0331569
113,육류,정성미트앤푸드,곽영임,서울특별시 성동구 마조로16길 23 1층 (마장동),,070-7599-2825, ,육류 도매업,2019-05-16,37.56513169999999,127.0438316
114,육류,정원프로비전스,서승찬,"서울특별시 성동구 고산자로 284 307호 일부 (행당동, 성동샤르망)",www.jwpro.co.kr/,02-2282-0912,070-5168-3330,육류 도매업,2014-11-28,37.5649229,127.0368108
115,육류,제니스미트,김봉중,경기도 광주시 초월읍 동막골길 23 (선동리)  2층,,031-762-9111,031-762-3175,육류 도매업,2009-11-19,37.3774356,127.3195925
116,육류,제니스유통,이광석,경기도 광주 초월 선동 251,WWW.ZENITH CO. KR,031-762-9111,031-762-9110,육류 도매업,1992-11-24,37.5781733,127.1771615
117,육류,제이케이미트코퍼레이션,장봉근,"서울특별시 광진구 아차산로78길 44 (광장동, 크레스코빌딩)",,02-452-2325, ,육류 도매업,2012-12-01,37.5529276,127.1099154
118,육류,제프바이오,윤상호,경기도 파주시 광탄면 마장리 78-10,www.etamra.co.kr,064-725-8700,064-725-8704,육류 도매업,2006-03-23,37.7687457,126.8861293
119,육류,착한고기,김재욱,경기도 화성시 팔탄면 구장리 515-11,,031-8059-2464,031-8059-4330,육류 도매업,2009-07-28,37.1587916,126.9001082
120,육류,청송축산유통,안정수,서울특별시 성동구 고산자로22길 4 (마장동),,02-2299-2438, ,육류 도매업,1999-06-26,37.5652741,127.0468957
121,육류,초록뱀푸드팜,김세연,"서울특별시 영등포구 여의대로 24 50층(여의도동, 전국경제인연합회회관)",www.chorokbaemfoodfarm.com,02-566-2055,02-566-2056,육류 도매업,2014-12-16,37.5221896,126.9202562
122,육류,총체보리한우유통사업단,박삼수,경기도 시흥시 방산동 128,,031-313-6684,031-312-6684,육류 도매업,2006-12-01,37.4275387,126.7782105
123,육류,캐틀팜,김성식,"서울특별시 서초구 바우뫼로 130 (양재동, 한도빌딩) 402호",,02-2294-9292,02-2294-9196,육류 도매업,2010-03-10,37.4756556,127.0354009
124,육류,컨슈머패키지커머스,김우영,"서울특별시 중구 통일로 86 (순화동, 바비엥3) 704호",https://www.cpfoods.co.kr,02-318-3470,02-2138-3422,육류 도매업,2017-12-21,37.5631121,126.9696446
125,육류,케이미트광주,오중석,광주광역시 광산구 비아로135번길 8-10,,062-973-8031, ,육류 도매업,2009-09-14,35.2228243,126.8195764
126,육류,케이미트선왕,최보근,"서울특별시 동작구 노들로2길 44 (노량진동, 케이미트)",,02-2102-4552,02-816-0901,육류 도매업,2009-08-03,37.5145952,126.934784
127,육류,케이미트에프앤비,이헌기,경기도 광주시 과수원길27번길 28 (경안동),,01052838760, ,육류 도매업,2020-06-17,37.4112995,127.2485382
128,육류,케이엠에스이엔씨,이풍우,서울특별시 강남구 삼성동 143-48 대종빌딩 806호,,02-564-7197,02-564-7393,육류 도매업,2001-08-16,37.5066225,127.0544959
129,육류,케이엠에스패밀리,문말수,서울특별시 강남구 봉은사로68길 41 (삼성동) 4층,,02-2295-6078,02-2295-6079,육류 도매업,2018-01-29,37.5096333,127.0519348
130,육류,케이와이푸드,오상택,"서울특별시 송파구 송파대로34길 35 3층(송파동, (주)멕시카나빌딩)",www.cthome.co.kr,02-3433-1871,02-3433-1870,육류 도매업,2007-05-03,37.4992677,127.1159024
131,육류,케이원통상,김장수,"인천광역시 연수구 컨벤시아대로42번길 8 (송도동, 송도코오롱더프라우1단지) 102동 309호",,032-584-8511, ,육류 도매업,2020-12-28,37.3987622,126.6522027
132,육류,케이티미트,김현철,"서울특별시 성동구 고산자로 302 (마장동, 금천빌딩 204)",,070-7538-8443,02-2293-7775,육류 도매업,2012-05-20,37.5665959,127.0369819
133,육류,케이티에이치아시아,김태희,"서울특별시 송파구 새말로5길 4-16 (문정동, 3층)",,02-400-0033,02-400-0013,육류 도매업,2011-01-20,37.4830988,127.1255813
134,육류,코리아푸드,백현,경기도 용인시 기흥구 공세로 126-1 (공세동),www.banhanu.com,031-284-3733,031-629-7852,육류 도매업,2011-07-01,37.2357162,127.108906
135,육류,탑앤탑미트,김준형,대전광역시 대덕구 대전로1158번길 17 (오정동),,042-637-2058,042-637-2059,육류 도매업,2012-01-01,36.3578145,127.4162498
136,육류,태우그린푸드,조규근,서울특별시 성동구 마장동 470-7,,02-2296-6761,02-2295-9966,육류 도매업,2006-01-01,37.5712871,127.0373188
137,육류,태원트레이드,김연포,서울특별시 성동구 마장동 517 (동방빌딩 403호),,02-2291-3929,02-2291-3922,육류 도매업,2007-05-10,37.5662588,127.0371155
138,육류,태진인터내셔날,박선홍,서울특별시 성동구 마장동 517 (동방빌딩 407호),,02-2299-3929,02-2299-3922,육류 도매업,2010-06-29,37.5662588,127.0371155
139,육류,토실배기,문익관,"서울특별시 양천구 목동 771-30 2,3층",,02-2652-5151,02-2652-0663,육류 도매업,2003-09-17,37.534414,126.868958
140,육류,트리플케이미트,박태호,"서울특별시 강동구 천호대로 1089 (천호동, 강동헤르셔) 2001호",,02)476-3487,02)477-3487,육류 도매업,2018-01-02,37.538274,127.14567
141,육류,티엠케이,김범수,경기도 하남시 감북동 412-3,,02-475-9256,02-475-7234,육류 도매업,1998-10-01,37.5175333,127.1486049
142,육류,팬텀트레이딩,김재영,"경기도 성남시 분당구 정자일로 158 제5층 502호(정자동, 백궁프라자2)",,031-717-0597,031-717-0598,육류 도매업,2013-12-01,37.3652561,127.106296
143,육류,퍼니베스트,김인곤,서울특별시 성동구 옥수동 218-1 영도캐피탈 1층,www.funivest.com,02-2297-9696,02-2297-5543,육류 도매업,2001-07-11,37.5406806,127.0130618
144,육류,펜플,이정훈,서울특별시 송파구 중대로12길 6 2층(가락동),,02-6472-5504,02-508-1888,육류 도매업,2011-11-21,37.4940172,127.1229834
145,육류,푸디버스,강원호 외 1명,"서울특별시 성동구 고산자로 300 (마장동, 동방빌딩) 405호",,02-2299-8911,02-2299-8910,육류 도매업,2012-04-05,37.5662588,127.0371155
146,육류,피지엠인터내셔날,주동우,대구광역시 동구 효목동 1060,,02-782-1782,02-782-1783,육류 도매업,2001-08-24,35.88104209999999,128.6514172
147,육류,필봉프라임엔터테인먼트,김성곤,서울특별시 송파구 문정동 70-5,phillbong.co.kr,02-443-4940,02-449-3688,육류 도매업,1997-02-20,37.4830988,127.1255813
148,육류,하나프라임,김성현,"경기도 용인시 수지구 신수로 767 (동천동, 분당수지U-TOWER) A동 1605호",,0318899227,0312650949,육류 도매업,2006-02-20,37.3382154,127.1018757
149,육류,하누산업,김동세,서울특별시 서초구 서초동 1624-1 영빌딩 6층,hanoo2000.co.kr,02)581-1818,02)581-3497,육류 도매업,2000-01-24,37.4882369,127.0148969
150,육류,하림유통,정삼모,"전라북도 익산시 낭산면 진북로 701 (낭산리, (주)하림유통)",,063-861-9245,0303-0958-9246,육류 도매업,2011-01-01,36.0630994,127.0283976
151,육류,하이랜드푸드,"서용욱, 윤영미",서울특별시 강동구 풍성로 235 하이랜드빌딩,,02-6423-3700,02-6008-0951,육류 도매업,2001-10-15,37.528626,127.1378905
152,육류,한결엘에스,김희수,경기도 광주시 오포읍 고산리 324-2,www.hangyulls.com,02-563-5448,02-563-5449,육류 도매업,1995-08-04,37.3714055,127.2276351
153,육류,한국얼로드,여원종,서울특별시 송파구 가락2동 137번지 5호,,02-3401-2777,02-3401-1820,육류 도매업,1993-04-17,37.4958177,127.1305993
154,육류,한울맘,김신곤,경상남도 창녕군 대지면 경남대로 4897-51 (효정리),,055-533-9133,055-533-2010,육류 도매업,1999-08-20,35.5573747,128.4806569
155,육류,현성글로벌,이현강,"서울특별시 강남구 논현로172길 21 (신사동, 이화빌딩) 4층",,02-2135-9210,02-2135-9211,육류 도매업,2008-01-01,37.5255795,127.0304657
156,육류,협동축산,구미민,서울특별시 금천구 독산동 293-29,zenithmeat.co.kr,02-893-7501,02-893-7506,육류 도매업,1999-10-08,37.4671494,126.8963148
157,육류,혜성프로비젼,최광현,"서울특별시 강남구 논현로28길 54 6,7층 (도곡동, 덕원빌딩)",,02-529-2225,02-529-2232,육류 도매업,2003-02-24,37.4845106,127.0461333
158,육류,화인판매,최선,전라남도 나주시 평산동 80-1,,061-331-8383,061-330-4507,육류 도매업,2003-12-10,34.9852356,126.7518803
159,육류,회명농산,한창호,"충청남도 천안시 서북구 오성로 95-10 (두정동, 회명빌딩) 4층 402호",www.hoimyung.co.kr,041)413-2594,041)621-2366,육류 도매업,2015-11-01,36.8311755,127.1384463
160,육류,회승,김석,"서울특별시 성동구 고산자로26길 5 (마장동, 협우정빌딩) 1층",,02-3395-0512,02-3395-0514,육류 도매업,2014-11-12,37.5708266,127.0384161
161,육류,효성마케팅,김영보,"서울특별시 구로구 디지털로32길 30 504호(구로동, 코오롱디지털타워빌란트)",,0221035858,0221035859,육류 도매업,1998-07-14,37.4834762,126.8965041
162,육류,가나안푸드,고안복,전라남도 나주시 산포면 매성리 291,,061-332-9998,-,육류 가공식품 도매업,2004-01-27,35.0317853,126.8054942
163,육류,가우정푸드,오송균,경상남도 거창군 남상면 홍덕길 33 (대산리),,0559458100,0559458101,육류 가공식품 도매업,2014-07-16,35.6549181,127.9343155
164,육류,농업회사법인강한돈,추연수,충청북도 충주시 주덕읍 충청대로 2312 (창전리),,043-854-5620, ,육류 가공식품 도매업,2011-03-31,36.9712818,127.7735087
165,육류,농업회사법인대광푸드,이병춘,충청북도 음성군 삼성면 대청로 54 (청용리),,043-535-1228,043-535-1227,육류 가공식품 도매업,2013-08-31,36.99202349999999,127.4562027
166,육류,농업회사법인스마일팜,김천석,경기도 광주시 오포읍 봉골길134번길 57 (문형리) 스마일팜,,070-8877-6464,031-721-0777,육류 가공식품 도매업,2012-05-22,37.6724067,127.1604024
167,육류,농업회사법인씨엔푸드,유인식,경기도 화성시 송산면 송산포도로 575 (마산리),www.seanfood.net,032-512-8639,032-519-8639,육류 가공식품 도매업,2016-12-28,37.2351833,126.697623
168,육류,농업회사법인참푸른글로벌,송석찬,전라남도 담양군 담양읍 월광로 43 (운교리) 참푸른글로벌,charmpr.kr,061-383-9466,061-383-9467,육류 가공식품 도매업,2015-09-23,35.3326707,126.9771417
169,육류,농협목우촌,표기환,서울특별시 강동구 올림픽로 528 농협건물 9층,www.moguchon.co.kr,02-2224-8800,02-2224-8860,육류 가공식품 도매업,2006-08-01,37.5288057,127.1203338
170,육류,다름플러스,이억불,서울특별시 강동구 천호대로 1077 이스트센트럴타워 9층,www.dareumplus.com,02-409-4242,02-482-4888,육류 가공식품 도매업,2017-07-05,37.536484,127.1321472
171,육류,다인푸드,장병철,경기도 시흥시 호현로 235 (대야동),dainfood.kr/,031-313-6452,031-404-4279,육류 가공식품 도매업,2004-06-21,37.4600647,126.788834
172,육류,대덕식품,김성규,대전광역시 대덕구 오정동 705-55,,042-638-7388,042-634-7388,육류 가공식품 도매업,2004-12-30,36.359665,127.4052656
173,육류,마세다린,정태환,경기도 용인시 수지구 고기로97번길 35 (동천동),www.gamaro.co.kr,031-276-7292,031-276-7230,육류 가공식품 도매업,2003-08-25,37.34449900000001,127.0872635
174,육류,미트리,이옥진,부산광역시 사상구 학감대로 252 7층 (감전동),metree.co.kr,051-995-6135,051-980-0910,육류 가공식품 도매업,2014-08-07,35.1532074,128.9907177
175,육류,미트원,유래경,경기도 하남시 산곡동로12번길 35 (하산곡동),,031-793-8855,031-793-5249,육류 가공식품 도매업,1999-09-08,37.5046795,127.2326904
176,육류,민속친한우,권민석,경상북도 군위군 군위읍 경북대로 4052 (오곡리),,054-383-8801,054-382-8807,육류 가공식품 도매업,2019-03-07,36.2646881,128.5733395
177,육류,수지스퀴진,박수지,서울특별시 용산구 녹사평대로 138 (이태원동)제이트리빌딩 2층,www.sujiscuisine.com,027973702,027973701,육류 가공식품 도매업,2011-10-05,37.5310465,126.9909571
178,육류,쉐프스푸드,김영일,"서울특별시 성동구 성수이로 65 (성수동2가, 협성빌딩) 2층 202호",chefs.co.kr/,02-529-4134,02-529-4132,육류 가공식품 도매업,2004-10-08,37.5410195,127.0555027
179,육류,신성푸드,김선철,경상남도 거창군 위천면 당산농공길 40 (당산리),,055-943-5289, ,육류 가공식품 도매업,2009-07-09,35.7521475,127.8578041
180,육류,씨앤피물류,김현수,경기도 포천시 해룡로 35-11 (설운동)  2층,www.moobongri.co.kr/,1899-6413,031-541-1386,육류 가공식품 도매업,2016-12-16,37.8609783,127.1442559
181,육류,아이더스코리아,장성식,"서울특별시 강서구 양천로 376 (가양동, 델타빌딩)7층,8층,9층",,02-323-9001, ,육류 가공식품 도매업,2015-11-20,37.5667835,126.843755
182,육류,에쓰프레시,조성수,"서울특별시 강남구 남부순환로 2729 4층(도곡동, 바스타빌딩)",,02-2140-9028, ,육류 가공식품 도매업,2019-04-04,37.4863619,127.0445887
183,육류,올에프엔비,방경석,"서울특별시 용산구 한강대로14길 69 (한강로3가, 갑선빌딩)",www.jogbalyasijang.com/,1522-4969,02-984-4414,육류 가공식품 도매업,2012-05-21,37.5234128,126.9676802
184,육류,이원식품,안지균,충청북도 음성군 대소면 오류리 797-1,,02-501-0127, ,육류 가공식품 도매업,2008-01-09,36.981024,127.4741873
185,육류,인천대림,최종철,인천광역시 서구 원석로 150,,032-861-9500, ,육류 가공식품 도매업,2014-08-01,37.5089642,126.6421838
186,육류,제이에스엠씨,"김태섭, 박규형, 유창호",경기도 하남시 서하남로 450-17 (춘궁동),,031-795-0000,031-795-0076,육류 가공식품 도매업,2012-02-01,37.5216694,127.1893756
187,육류,주왓슨교역,김 헨리영,서울특별시 강남구 대치동 910-15 율전빌딩 201,,02-3453-5651,02-553-1604,육류 가공식품 도매업,1997-01-23,37.5008497,127.0538807
188,육류,참조은에스에프,임경숙,"경기도 부천시 오정구 소사로862번길 9 (원종동, 선민교회)",www.chamjoeunsf.co.kr,032-677-5845,032-678-4778,육류 가공식품 도매업,2010-07-15,37.5324526,126.8064317
189,육류,코주부비앤에프,이춘복,경기도 하남시 감이남로 74-23 (감이동346-1),kojoobu.com,024080100,024080110,육류 가공식품 도매업,2010-01-01,37.4965669,127.1610081
190,육류,큐엔씨육가공,유임묵,경기도 안산시 단원구 광덕2로 58-12,,0314391425,0314391455,육류 가공식품 도매업,2012-12-24,37.3094316,126.8163481
191,육류,타이슨푸드코리아,이철기,충청남도 천안시 동남구 통정5로 88 (신방동) 2층,,0415927145,0415927147,육류 가공식품 도매업,2020-10-11,36.7760959,127.1356406
192,육류,티비비씨,이원성,경기도 화성시 매송면 매송고색로395번길 7 (천천리),,031-245-8877, ,육류 가공식품 도매업,2002-10-08,37.2442684,126.9488562
193,육류,티지와이,김재곤,충청남도 예산군 오가면 원천길 27-7 (원천리),,02-357-2525,02-2057-0101,육류 가공식품 도매업,2016-05-31,36.7013893,126.7877586
194,육류,판코상사,이동은,"서울특별시 영등포구 경인로 775 (문래동3가, 에이스하이테크시티 1동 1601호)",,02-3439-1234,02-3439-1233,육류 가공식품 도매업,2000-02-23,37.5147541,126.8989475
195,육류,피엠씨에이피,서재교,서울특별시 강남구 역삼동 834-26,,02-556-3011,02-3453-8472,육류 가공식품 도매업,1999-02-22,37.4929158,127.0344887
196,육류,하이포크,이영건,서울특별시 성동구 고산자로26길 14,,070-4688-2505,02-2299-3709,육류 가공식품 도매업,2013-06-03,37.5703459,127.0392669
197,육류,혜인식품,현광식,서울특별시 도봉구 노해로 391 (창동) 네네빌딩 8층,,02-6919-3003,02-6918-6152,육류 가공식품 도매업,2006-01-05,37.6528407,127.0516203
198,육류,휴먼푸드,김종철,경기도 수원시 권선구 경수대로 93 4층 (대황교동),www.humanfood.co.kr,031-281-6085,031-281-6087,육류 가공식품 도매업,2003-11-17,37.2358243,127.0195786
199,주류,가든주류,이상동,광주광역시 북구 오문로 50 (오치동),,062-268-5555, ,주류 도매업,1995-04-21,35.1902158,126.9108283
200,주류,거원유통,경세근,경기도 김포시 걸포로 142-35 (걸포동),,031-985-6140,031-985-9954,주류 도매업,1985-01-14,37.6436889,126.7041552
201,주류,고려양주,김선중,경기도 용인시 수지읍 동천리 853,,02)588-1321,02)588-2211,주류 도매업,1992-04-09,37.1154792,127.1101322
202,주류,골든블루인터내셔널,박용수,경상남도 양산시 물금읍 제방로 225 (증산리),,0517457457,0517457477,주류 도매업,2015-07-02,35.3114954,129.0154105
203,주류,그린터틀,최동욱,"서울특별시 강남구 언주로 804 (신사동, 신사빌딩)",,02-545-6543, ,주류 도매업,2004-10-21,37.5221642,127.0339206
204,주류,금강주류,최근희,"서울특별시 노원구 화랑로45길 71 (월계동, 한솔LogisClub성북물류센타)",,0222920001,0222940963,주류 도매업,1990-04-11,37.6180073,127.0639091
205,주류,금양인터내셔날,조상덕,"경기도 부천시 신흥로511번길 80 A322-327호(오정동, 켄달스퀘어부천로지스틱스파크)",www.keumyang.com,02-2109-9200,02-2109-9290,주류 도매업,1989-05-30,37.5304381,126.7735047
206,주류,길진인터내셔날,"이용관, 김양한",경기도 평택시 안중읍 서해로 1279,www.kiljin.co.kr,070-7863-7730,02-805-2016,주류 도매업,2000-01-27,37.0072494,126.945447
207,주류,까브드뱅,유안근,"서울특별시 영등포구 여의나루로 67 803호(여의도동, 신송빌딩)",www.cavedevin.co.kr,02-786-3136,02-785-5719,주류 도매업,1994-09-01,37.5237085,126.9263557
208,주류,나라셀라,마승철,"경기도 이천시 백사면 청백리로393번길 353, 지하 1층",www.naracellar.com/,02-405-4326,02-405-4326,주류 도매업,1990-01-10,37.3255902,127.4973334
209,주류,나라셀라,이종훈,경기도 광주시 초월읍 산수로682번길 55 (무갑리),www.naracellar.com,02-405-4327,02-405-4302,주류 도매업,1997-04-24,37.4205569,127.3140627
210,주류,남경약품,박훈규,광주광역시 북구 우산동 168-2,,062-269-1761,062-269-1764,주류 도매업,1989-04-18,35.1763624,126.9195733
211,주류,남부상사,남정현,서울특별시 동대문구 고미술로 99 (답십리동) 4층,,02-873-5001,02-873-5005,주류 도매업,1977-07-01,37.5642524,127.0575904
212,주류,내성기업,이택연,서울특별시 송파구 삼전동 171-6,,424-5311,424-0030,주류 도매업,1992-03-31,37.4981252,127.0943623
213,주류,다산주류,이재일,"서울특별시 송파구 문정로 145 (가락동, 대정하우스빌딩)",,02-575-8083,02-575-8038,주류 도매업,1977-03-05,37.4926392,127.1357208
214,주류,대명종합주류,오인근,서울특별시 강동구 상일동 1∼120,,1588-9626,02-481-0264,주류 도매업,1990-02-16,37.54704,127.164813
215,주류,대성주류판매,박찬중,"서울특별시 노원구 중계로6길 80 (중계동, 대성주류)",http:www.dsjuryu.co.kr,02-951-9961,02-951-964,주류 도매업,1977-06-21,37.6441317,127.0877271
216,주류,대은주류,이대주,"서울특별시 송파구 마천로21길 10 (오금동, 덕성빌딩)2층",,02-408-8278,02-408-8274,주류 도매업,1990-04-10,37.504547,127.1381894
217,주류,대정,김종완,"서울특별시 구로구 개봉로1길 204 (개봉동, 대정)",www.e-sul.co.kr,02-867-8000,02-867-2226,주류 도매업,1976-10-22,37.4829421,126.8477699
218,주류,대한주류,박용국,경기도 용인시 수지읍 풍덕천동 71-3,,02)3398-3477,02)3398-1690,주류 도매업,1987-11-16,37.3298653,127.1017334
219,주류,대한주정판매,최상로,서울특별시 금천구 시흥대로153길 16 (독산동) 7층,www.ethanol.co.kr,02-780-6212,02-784-0595,주류 도매업,1972-11-01,37.4772417,126.8974232
220,주류,대화주류,이수환,경기도 부천시 오정로133번길 6-18 (내동),,0326778186,0326798186,주류 도매업,1990-03-09,37.5268286,126.7756698
221,주류,더블유에스통상,안범환,서울특별시 중구 을지로2가 88 ~199 199-15 SK명동빌딩 15층,,070-7800-2594,02-725-8903,주류 도매업,2006-05-19,37.5669935,127.0002344
222,주류,델라노체,김태순,"서울특별시 동대문구 사가정로 6 (답십리동, 청계Gwellestates) 3층 7,8호 지층 B104호",,031-932-5032, ,주류 도매업,2015-01-16,37.5701708,127.0495168
223,주류,독도사랑,김세형,서울특별시 강남구 언주로 107길 48(역삼동 2층),,1588-1990,02)442-2040,주류 도매업,1983-05-25,37.5070053,127.0353728
224,주류,동원와인플러스,신영수,"서울특별시 서초구 마방로 68 (양재동, 동원산업빌딩)",www.dongwonwineplus.com,02-589-3655,02-589-3654,주류 도매업,2003-03-01,37.476731,127.045345
225,주류,두리주류판매,하래욱,서울특별시 강동구 진황도로61길 68 (둔촌동) 203호,,024284038,0234260165,주류 도매업,1990-04-09,37.5277626,127.1467679
226,주류,두산스피리츠,성재철,서울특별시 강남구 논현2동 두산빌딩,,02)3398-1632, ,주류 도매업,2002-04-24,37.5193749,127.0351875
227,주류,드링크인터내셔널,김일주,"서울특별시 서초구 강남대로 279 (서초동, 백향빌딩) 3층",drinksinter.com,02-6235-1062,02-566-2607,주류 도매업,2019-01-04,37.4880855,127.0316439
228,주류,디아지오코리아,루츠드샴프,서울특별시 강남구 역삼동 826-14 진솔빌딩 7층,www.whisky.co.kr,3466-0756,3466-0893,주류 도매업,1989-06-10,37.4950386,127.0297037
229,주류,디아지오코리아,대니얼스튜어트해밀턴,경기도 이천시 대월면 대월로932번길 94 (초지리) 에이동,,02-2188-1900, ,주류 도매업,2022-07-01,37.2351595,127.5024043
230,주류,라온,"신동열, 임원섭","경기도 의왕시 양지편2로 7 (청계동, 청송빌딩) 503호",shin@myraon.co.kr,1544-8162,031-421-8163,주류 도매업,2012-11-13,37.3900126,126.9954639
231,주류,라인상사,최영호,경기도 하남시 천현로134번길 60 (천현동),,024032111,024011800,주류 도매업,1995-05-10,37.5343007,127.220986
232,주류,레뱅드매일,유지찬,경기도 이천시 마장면 덕평로 1072 661번길 87,www.lesvinsmaeil.com,02-3497-6888,02-3675-6296,주류 도매업,2002-01-10,37.253459,127.3620936
233,주류,마당쇠유통,이영민,경기도 남양주시 진접읍 금강로960번길 23 (내곡리),,031-528-0666,031-574-6603,주류 도매업,2013-07-25,37.685735,127.1643297
234,주류,메르뱅,김도조,"서울특별시 중구 장충단로8가길 1 (장충동1가, 동림38빌딩)",,070-8189-0197,02-6280-3280,주류 도매업,2008-02-21,37.5622025,127.0080223
235,주류,모엣헤네시코리아,배보수,서울특별시 송파구 방이동45-2 금복빌딩 4층,,02-6424-1051,02)6424-1030,주류 도매업,1996-03-23,37.5164878,127.1142354
236,주류,바카디코리아,이범모,서울특별시 강남구 청담동 84-9,,02-564-2587,02-564-2523,주류 도매업,2007-06-01,37.5258005,127.0403854
237,주류,뱅베,김은성,경기도 파주시 월롱면 검바위길 87-22 (덕은리),,01094534860,050703376898,주류 도매업,2017-11-07,37.7849378,126.7694517
238,주류,보해통상,임지선,"서울특별시 강남구 언주로97길 8 (역삼동, 창해에탄올사옥)",bohae.co.kr,02-554-3904,02-538-0806,주류 도매업,1989-07-18,37.5055039,127.0406971
239,주류,부덕종합주류,정기채,부산광역시 동래구 온천동 1256-1,,051-505-1513,051-505-5658,주류 도매업,1987-03-02,35.2037692,129.0648217
240,주류,북창기업,유준용,서울특별시 동대문구 고미술로 99 (답십리동) 4층 401호 우성빌딩,,02-2672-6133,02-2672-6137,주류 도매업,1987-03-01,37.5642524,127.0575904
241,주류,비노갤러리아,정호철,"서울특별시 영등포구 63로 32 609호, 1106호 (여의도동, 콤비빌딩)",,02-410-7604, ,주류 도매업,2023-06-01,37.5189754,126.9389194
242,주류,비노파라다이스,최윤정,"서울특별시 중구 동호로28길 14 (장충동2가, 동우빌딩)",,02-2280-5239, ,주류 도매업,2014-11-01,37.5600361,127.0036617
243,주류,비어케이,이영석,"서울특별시 강남구 영동대로 325 (대치동, 해암빌딩) 11층 (주)비어케이",www.beerkorea.net,02-529-6525,02-529-0220,주류 도매업,2003-05-03,37.5034607,127.065435
244,주류,비티스,김남경,인천광역시 중구 축항대로86번길 70 (항동7가),,0328868156,025434020,주류 도매업,2004-03-09,37.4509761,126.6016585
245,주류,빔산토리코리아,송지훈,"서울특별시 강남구 테헤란로 152 (역삼동, 강남파이낸스센터) 6층",,02-6206-3149, ,주류 도매업,2018-07-02,37.4998097,127.0366289
246,주류,생필체인,이윤서,경상남도 양산시 동면 수질정화공원로 40 (금산리),,055-380-4801,055-380-4898,주류 도매업,1985-09-10,35.3051222,129.02423
247,주류,서울로직,김홍필,경기도 고양시 덕양구 보광로106번길 40 (벽제동),,031-969-6521,031-969-5732,주류 도매업,2008-06-17,37.7237163,126.9080646
248,주류,서일주류판매,이선일,"서울특별시 구로구 오리로22다길 40 (궁동, 서영주류)",,1522-6630,02)2699-2784,주류 도매업,1995-04-18,37.5006871,126.831924
249,주류,선진주류,안태문,서울특별시 강동구 초광로294번길 70 (상일동),,02-429-4241,02-3427-0546,주류 도매업,1995-04-07,37.547114,127.1776721
250,주류,선호상사,허태섭,서울특별시 용산구 한남동 102-5,sunho2052@naver.com,027902051,027956908,주류 도매업,1987-02-21,37.53110059999999,127.0080835
251,주류,세계주류,김종득,"서울특별시 관악구 조원로 96 (신림동, 금산빌딩)",,0226058888, ,주류 도매업,1993-04-30,37.4844603,126.9129504
252,주류,세왕상사,정길주,서울특별시 강동구 둔촌동 99번지,sewang.co.kr,02-2203-5311,02-2203-5592,주류 도매업,1978-05-13,37.5278025,127.1462271
253,주류,송정주류,김종은,서울특별시 구로구 경인로 37 (온수동),sj-sul.com,02-851-1133,02-852-9883,주류 도매업,1994-07-01,37.4914939,126.826601
254,주류,수석무역,김일주,경기도 여주군 능서면 마래리 466,www.jnbscotch.co.kr,02) 3014-2000,02) 514-7082,주류 도매업,1989-07-01,37.2559996,127.5581608
255,주류,수성주류,이강혁,경기도 수원시 권선구 고현로 34 (고색동),,031-294-0010,031-295-3989,주류 도매업,1987-03-01,37.2511862,126.9875241
256,주류,신동와인,홍기만,서울특별시 용산구 한남대로 150 신동빌딩,shindongwine.co.kr,02-794-4531,02-794-4674,주류 도매업,1991-01-30,37.5418251,127.0034977
257,주류,신세계엘앤비,우창균,"서울특별시 광진구 아차산로 563 (광장동, 대한제지(주)사옥) 7층",,02-727-1975,02-2289-1199,주류 도매업,2008-12-18,37.5441231,127.1029302
258,주류,신승상사,정용태,서울특별시 강동구 천호대로 1203 (길동) TS타워 5층,,02-401-6247,02-401-4570,주류 도매업,1987-03-01,37.5355851,127.1447791
259,주류,신원약품,김양오,서울특별시 중랑구 면목2동 144-20,,434-3777,434-3778,주류 도매업,1985-11-20,37.5897551,127.0789319
260,주류,신정주류,이기춘,서울특별시 중랑구 면목동 132-16,,02-2209-1230, ,주류 도매업,1987-02-11,37.5921371,127.0848214
261,주류,신합상사,남세열,서울특별시 은평구 북한산로 283 (진관동),sinhap.co.kr,385-5121,371-0428,주류 도매업,1977-07-07,37.6550063,126.9398558
262,주류,씨에스알와인,김정윤,"서울특별시 강남구 압구정로30길 17 (신사동, 이소니프라자) 5층",www.thevincsr.com/,025358407,025161660,주류 도매업,2007-07-10,37.5262629,127.0294934
263,주류,아간코리아,성석제,경기도 과천시 과천동 529-4,,02-2203-0355,02-2203-0366,주류 도매업,1999-09-07,37.446867,126.9968489
264,주류,아세아약품,홍승태,서울특별시 동대문구 장안3동 436-3,,02) 2243-7542~7,02) 2243-7548,주류 도매업,1979-10-15,37.5638075,127.0679608
265,주류,아영에프비씨,우종익,"서울특별시 중구 퇴계로46길 23 (묵정동, 제일병원의학연구소)",,02-2175-0106,02-2175-0109,주류 도매업,1987-10-21,37.5613603,127.002265
266,주류,에노테카코리아,김진섭,서울특별시 강남구 언주로150길 34  3층 (논현동),www.enoteca.co.kr/,02-3442-1150,02-3442-1153,주류 도매업,2011-06-17,37.5215398,127.0371476
267,주류,에드링턴코리아,노동규,"서울특별시 강남구 삼성로 570 (삼성동, 대한해운사옥) 5층",www.edrington.com,2140-4600,2140-4602,주류 도매업,1991-08-05,37.5123622,127.0541768
268,주류,에스더블유팜,김양,서울특별시 서초구 사평대로 16 11(소화빌딩3층),,02-558-2780,02-563-1427,주류 도매업,1992-09-16,37.4983353,126.9861089
269,주류,에스엠,"박병권, 허광수",서울특별시 도봉구 창동 650-43,,029017900,029903400,주류 도매업,1996-09-01,37.6450334,127.0332502
270,주류,에스엠바로코사경인,박기훈,인천광역시 서구 봉수대로 1274 (왕길동),,032-554-0288,032-554-0290,주류 도매업,1981-01-20,37.589568,126.6588253
271,주류,에스엠바로코사부산,안상원,부산광역시 강서구 녹산산단46로 13 (송정동) 1층,,051-261-8989,051-266-6969,주류 도매업,2000-03-16,35.094611,128.82532
272,주류,에이이브랜드코리아,HOLMES MATTHEW IAN,서울특별시 용산구 이태원로 244 (한남동) 트윈빌딩 5층,www.pilsner.co.kr,02-3019-6000,02-3019-6001,주류 도매업,2007-11-13,37.53644450000001,127.0004987
273,주류,에프제이코리아,선혁진,"서울특별시 송파구 올림픽로 370 (방이동, 수성엔지니어링방이빌딩) 5F",fjkorea.co.kr/,024743610,0234012888,주류 도매업,2006-02-24,37.5149601,127.1095137
274,주류,엘스타약품,서훤준,광주광역시 동구 운림동 70,,062-226-6011,062-226-6030,주류 도매업,1983-03-16,35.1346198,126.9731731
275,주류,엠에이치샴페인즈앤드와인즈코리아,조나단스튜어트로니,경기도 이천시 마장면 서이천로 91,,02-2188-5100, ,주류 도매업,2010-12-16,37.2489503,127.3694973
276,주류,엠즈베버리지,이종완,"서울특별시 서초구 바우뫼로37길 18 (양재동, 제이프러스빌딩) 8층",www.sapporobeer.kr,02-2140-9316,02-3672-2412,주류 도매업,2011-05-02,37.4797208,127.0396658
277,주류,엠케이비앤에프,김갑성,서울특별시 성동구 아차산로13길 38,,02-580-6960,02-580-6993,주류 도매업,2009-05-26,37.5463004,127.0621978
278,주류,와인나라아이비,이권휴,경기도 평택시 안중읍 서해로 1279 (용성리),,02-2175-0112, ,주류 도매업,1987-11-09,37.0119653,126.9430163
279,주류,와인컨시어지,신문수,"서울특별시 영등포구 의사당대로 8, 1층 (여의도동, 삼환까뮤빌딩)",,02-862-0806, ,주류 도매업,2011-06-10,37.5278672,126.9169098
280,주류,우리와인,변기호,"경기도 평택시 안중읍 서해로 1279 (용성리, 아영에프비씨평택창고) 2층",,02-2175-0101,02-2175-0109,주류 도매업,1998-02-02,37.0119653,126.9430163
281,주류,원창진흥,강종구,서울특별시 서초구 탑성말길 30 (신원동) 2층,,02-420-4210,02-567-8905,주류 도매업,1976-12-15,37.4567109,127.0580959
282,주류,윌리엄그랜트앤선즈코리아,김일주,"서울특별시 강남구 언주로 620 (논현동, 현대인텔렉스) 3층",,02-2152-1600,02-2152-1609,주류 도매업,2008-12-26,37.5117092,127.036271
283,주류,유나이티드인터팜,강선영,서울특별시 서초구 양재동 17-9,,3462-8438,558-2585,주류 도매업,1985-10-17,37.4809587,127.0391562
284,주류,이동유통,이종미,"서울특별시 강남구 영동대로 738 (청담동, 현대오피스텔) B1호",,070-4814-4434, ,주류 도매업,2020-01-16,37.52409950000001,127.055421
285,주류,이랜드팜앤푸드,정환욱,경기도 오산시 황새로 109 (누읍동),,02-440-0817,02-440-0829,주류 도매업,2006-06-19,37.1367008,127.058901
286,주류,인덜지,커트 다니엘 캉가스,서울특별시 강남구 압구정로4길 13-19 (신사동),,025125270, ,주류 도매업,2008-06-27,37.5225545,127.0215638
287,주류,인창무역,이천웅,대전광역시 유성구 북유성대로 170 (죽동) 1층 101호,,042-537-9577,042-487-9576,주류 도매업,2010-02-22,36.38172309999999,127.3232718
288,주류,일오종합주류,최재기,경기도 파주시 지목로 17-13 (신촌동),,031-948-1515, ,주류 도매업,2013-12-24,37.72618600000001,126.6927273
289,주류,제일주류,문성윤,제주특별자치도 제주시 애월읍 하광로 202,,064-746-0134, ,주류 도매업,1982-05-14,33.469908,126.4189089
290,주류,중앙종합주류,박규남,"서울특별시 강동구 상일로 127 (고덕동, 타이키) 3층",,02-445-4400,02-445-7721,주류 도매업,2002-09-25,37.5585146,127.1708936
291,주류,진로발렌타인스무역,데이비드 루카스,경기도 용인시 수지구 동천동 853,,02-520-3639, ,주류 도매업,1999-12-14,37.3349309,127.1001839
292,주류,진성통합상사,배세욱,서울특별시 마포구 창전로 16 (신정동),,02)718-0744,02)719-7475,주류 도매업,1976-11-06,37.545267,126.9296341
293,주류,충청주류상사,정진영,대전광역시 동구 우암로 211-8 (가양동),,042-624-3200,042-621-2183,주류 도매업,1987-02-28,36.3467531,127.4493447
294,주류,칭따오비어,채현기,서울특별시 마포구 양화로3길 6 (합정동),,0269531006, ,주류 도매업,2018-12-27,37.5492328,126.9118589
295,주류,퀀텀리커,임수현,경기도 오산시 동부대로 291-70 (갈곶동),,031-377-8988,031-377-8990,주류 도매업,2019-11-01,37.1289957,127.0738743
296,주류,크리스탈와인컬렉션,이준혁,서울특별시 서초구 사임당로14길 37,,02-6912-4859, ,주류 도매업,2009-03-03,37.4881839,127.0179113
297,주류,트랜스베버리지,류호준,"서울특별시 송파구 정의로7길 13 (문정동, 힐스테이트에코송파) 10층 오피스 1015호(문정동)",,025466100,024076300,주류 도매업,2018-03-06,37.4883835,127.1278143
298,주류,트윈와인,김수한,서울특별시 용산구 한남동 123 고뫄스빌딩 8층,,02-791-0953,02-791-0999,주류 도매업,2007-11-20,37.530762,127.0090508
299,주류,페르노리카코리아,프란츠 브루노 디디에 호튼,경기도 이천시 마장면 서이천로 41 (이치리),www.pernod-ricard-korea.com,02-3466-5700,02-3466-5995,주류 도매업,1992-12-31,37.2590322,127.382864
300,주류,포도주류,"김재훈, 이경희","경기도 의왕시 왕곡로 216-12 (왕곡동, 포도주류유한회사) 2층사무실",,031-457-0394,031-454-0847,주류 도매업,2003-10-09,37.3453691,126.9970106
301,주류,포도주류,"서성은, 이응석",경기도 성남시 분당구 석운로 294 (석운동),,0317019662,07040151264,주류 도매업,2005-10-20,37.385886,127.0497232
302,주류,풍전약품,백종욱,"서울특별시 강남구 개포로 220 (개포동, 풍전빌딩)",해당사항없음,02-578-2131,02-577-6668,주류 도매업,1984-03-22,37.4784912,127.0467986
303,주류,하이네켄코리아,자브킨보두노프아텀,서울특별시 강남구 테헤란로114길 38 대치동 동일타워 11층,www.heineken.co.kr,02-2192-7612,02-558-8997,주류 도매업,2003-06-12,37.5071423,127.066996
304,주류,하이스코트,임헌봉,충청남도 천안시 목천읍 소사리 216-2,,02-3443-3411,02-517-1364,주류 도매업,1993-10-08,36.7447751,127.1684831
305,주류,한국브라운포맨,리차드트레버스미스,서울특별시 강남구 선릉로 820 남한강빌딩 4층 (청담동),,518-7700,518-0400,주류 도매업,1998-07-27,37.5250885,127.0400495
306,주류,한국술유통,박정기,경기도 남양주시 와부읍 궁촌로 28 (도곡리) 2층,,029396151,029293932,주류 도매업,2005-05-13,37.5766178,127.2312855
307,주류,한국스페셜티맥주,윤선종,경기도 용인시 수지구 풍덕천동 71-3,,02-2149-5245, ,주류 도매업,2002-04-03,37.3298653,127.1017334
308,주류,한국씨이케이,김도형,"서울특별시 강남구 논현2동 62번지, 조일빌딩",,02-3446-6033,02-3446-6037,주류 도매업,1998-04-06,37.5164561,127.0318878
309,주류,한일사약품,김형인,대구광역시 북구 산격동 1731,,053.382.3800,053.382.3824,주류 도매업,1996-07-20,35.9070562,128.6165038
310,주류,현대주류,노미선 노종만,경기도 시흥시 시흥대로 967 (미산동),,0313149758,031-3149735,주류 도매업,2002-09-16,37.4182287,126.7894371
311,식품,곰소식품,이팔규,서울특별시 동대문구 경동시장로 26 (제기동),,029665206, ,수산물 가공식품 도매업,2014-04-20,37.5813376,127.040805
312,식품,금성,이용완,"부산광역시 서구 원양로 1 비동 608호(암남동, 수산가공선진화단지)",,051-808-8876,070-8233-2711,수산물 가공식품 도매업,2005-03-22,35.054509,129.0115585
313,식품,대평물산,홍종순,"부산광역시 부산진구 부전로170번길 21 (부전동 ,2층)",,07073920223,0517026753,수산물 가공식품 도매업,2010-03-30,35.162168,129.0602121
314,식품,모노링크,허태영,"서울특별시 송파구 삼전로2길 51 (삼전동, 일본식품아울렛)",www.monolink.kr,02-425-6837,02-425-6838,수산물 가공식품 도매업,2000-07-10,37.4997697,127.0897783
315,식품,부산세광식품,김수진,부산광역시 강서구 녹산산업중로 381 (송정동),,051-264-4324,051-262-9008,수산물 가공식품 도매업,1972-01-26,35.0939432,128.8614499
316,식품,삼우실업,이성태,경기도 남양주시 화도읍 녹촌로199번길 31-5 (녹촌리) 398-5,,0315513510,0315523512,수산물 가공식품 도매업,2003-09-23,37.6389062,127.2828375
317,식품,상신티에스,최선근,충청남도 천안시 서북구 성환읍 안궁1길 230 (안궁리),,041-585-5850,041-585-5853,수산물 가공식품 도매업,2015-06-01,36.9571506,127.1481469
318,식품,선해수산,심의헌,경기도 광주시 광남안로 39-12 (태전동),sunhae.co.kr/,031-799-3312,031-769-2188,수산물 가공식품 도매업,1999-08-27,37.390661,127.2213
319,식품,소비코,권경섭,서울특별시 서초구 남부순환로 2271-5 (방배동),www.sovico.co.kr,2106-2800,02-587-7337,수산물 가공식품 도매업,1973-04-22,37.4748247,127.0001627
320,식품,씨엔에프앤비,김재천,경기도 이천시 호법면 중부대로 839-6 (안평리),,0313218148,0313228149,수산물 가공식품 도매업,2012-02-01,37.2449338,127.4252102
321,식품,에스비,서성철,충청북도 음성군 대소면 성본산단로 86,,043-750-8088,043-750-8089,수산물 가공식품 도매업,2012-11-09,36.9667194,127.5398476
322,식품,에프엘티,김윤희,경기도 평택시 포승읍 여술1길 22 (도곡리),성남시 분당구 야탑로,0317077200,0317098213,수산물 가공식품 도매업,2003-01-07,36.98559960000001,126.8443041
323,식품,오에프씨,백남길,대전광역시 서구 둔산중로78번길 26 (둔산동),,02)543-7750, ,수산물 가공식품 도매업,2014-08-05,36.3532923,127.3882071
324,식품,제이케이푸드,김기진,경기도 광주시 광남안로 4-37,www.jkmart.kr/,031-797-0056, ,수산물 가공식품 도매업,2012-06-29,37.3940387,127.2199205
325,식품,청산유통,최종환,전라남도 영광군 법성면 대덕리 217번지,http://www.igulbi.com,061-356-4989,061-356-8338,수산물 가공식품 도매업,1992-03-06,35.3517168,126.4594562
326,식품,케이와이식품,이형욱,인천광역시 서구 길주로 8 (석남동),www.hangari-banchan.com/,032-715-5988,032-715-5989,수산물 가공식품 도매업,2015-12-01,37.5064654,126.6626414
327,식품,한국수리미,이동익,부산광역시 기장군 일광면 화전리 322-1,,0517229611,0517227422,수산물 가공식품 도매업,2002-09-23,35.2840446,129.2290094
328,식품,해성아이엔티엘,허태권,경상남도 창원시 진해구 안골로108번길 70 (안골동),,0512657844,0512657845,수산물 가공식품 도매업,2010-06-18,35.088988,128.7872479
329,식품,그라쉐,김영준,충청북도 진천군 이월면 사곡리 615-7,,031-715-7780,031-715-7709,"빵류, 과자류, 당류, 초콜릿 도매업",2005-05-03,36.8793757,127.4376577
330,식품,길무역,한동민,경기도 성남시 수정구 복정동 30,,02-418-1211,02-418-1352,"빵류, 과자류, 당류, 초콜릿 도매업",1985-06-25,37.4588112,127.1443529
331,식품,농업회사법인오리온농협,박민규,경상남도 밀양시 부북면 점필재로 229-1 (제대리),,055-802-5000,055-802-8034,"빵류, 과자류, 당류, 초콜릿 도매업",2016-09-27,35.4832517,128.7244239
332,식품,떡보의하루,성우진,대구광역시 달서구 이곡동로 11 1층(이곡동),,053-593-4427,053-592-4427,"빵류, 과자류, 당류, 초콜릿 도매업",2010-03-16,35.85416550000001,128.508698
333,식품,몬즈컴퍼니,정부중,경기도 안산시 상록구 해안로 1319 (팔곡이동),bakingmon.com,031-408-8425,031-408-8474,"빵류, 과자류, 당류, 초콜릿 도매업",2014-12-30,37.2909716,126.8864931
334,식품,미성유통,박태석,경기도 광주시 삼지곡길22번길 19 (삼동),,031-763-6381,031-763-6383,"빵류, 과자류, 당류, 초콜릿 도매업",1994-06-14,37.4124168,127.2049686
335,식품,성신,홍명표,부산광역시 금정구 공단로 51 (금사동),www.bakingmam.co.kr,051-752-8346,051-752-8347,"빵류, 과자류, 당류, 초콜릿 도매업",2012-08-19,35.2188112,129.1132339
336,식품,슈니발렌코리아,정승환,서울특별시 서초구 양재동 23번지 양재환승빌딩 4층 408호,www.schneeballenkorea.com,02-308-8577,02-324-0678,"빵류, 과자류, 당류, 초콜릿 도매업",2012-09-20,37.4834894,127.0342807
337,식품,스위트밀,최동욱,"경기도 안산시 단원구 원포공원1로 60 (초지동, 다인프라자 603호)",www.beardpapas.co.kr,02-2120-7915,02-2120-7928,"빵류, 과자류, 당류, 초콜릿 도매업",2004-01-01,37.3032173,126.8114225
338,식품,스위트스페이스,사공숙희,"서울특별시 강남구 봉은사로2길 23 1층 (역삼동, 오렌지빌딩)",www.sweetspace.co.kr,02-2176-0316,02-566-2779,"빵류, 과자류, 당류, 초콜릿 도매업",2012-10-25,37.5031596,127.0262088
339,식품,씨.에스에프,이동현,부산광역시 동래구 연안로58번길 7 (안락동),CSFOOD.CO.KR,051-531-8181,051-531-8286,"빵류, 과자류, 당류, 초콜릿 도매업",1996-06-26,35.1920244,129.1109077
340,식품,씨에이치판매,박기범,강원도 원주시 우산동 60-1,,033-743-0450,033-743-0448,"빵류, 과자류, 당류, 초콜릿 도매업",2006-07-13,37.3762098,127.9439247
341,식품,아쿠아리어스,강석철,"서울특별시 강남구 영동대로 511 3304호(삼성동, 트레이드타워)",,02-438-1128,02-438-8823,"빵류, 과자류, 당류, 초콜릿 도매업",2014-05-09,37.51032379999999,127.0610228
342,식품,엘케이푸드,김소현 이용훈,인천광역시 서구 건지로 183 (석남동),,032-544-0008,0325444116,"빵류, 과자류, 당류, 초콜릿 도매업",2012-01-02,37.4996157,126.662406
343,식품,위펀,김헌,"서울특별시 구로구 디지털로 288 (구로동, 대륭포스트타워1차) 1312,1313,1314호",,1644-4624,02-6008-2221,"빵류, 과자류, 당류, 초콜릿 도매업",2018-12-24,37.4835267,126.8954883
344,식품,유진씨엔에스,이현준,"인천광역시 연수구 송도과학로 32 M동 2604호(송도동, 송도테크노파크IT센터)",,0328587671,0328587675,"빵류, 과자류, 당류, 초콜릿 도매업",2008-10-15,37.3818133,126.6623116
345,식품,이멕스무역,송호성,"서울특별시 강남구 봉은사로 636 (삼성동, 성은빌딩) 5층",emaxtrading.kr,02-552-7455,02-552-7543,"빵류, 과자류, 당류, 초콜릿 도매업",1998-04-03,37.5147747,127.0649196
346,식품,일신국제무역,형윤준,경기도 광주시 오포읍 오포로 769-12 (추자리),www.ilshinworld.com,031-797-2901,031-797-2904,"빵류, 과자류, 당류, 초콜릿 도매업",2000-01-04,37.3626865,127.2223893
347,식품,제너럴밀스코리아,서홍표,"서울특별시 강남구 테헤란로 311 (역삼동, 아남타워빌딩) 6층",,02-508-8500, ,"빵류, 과자류, 당류, 초콜릿 도매업",1999-04-01,37.5038296,127.044828
348,식품,제원인터내쇼날,"최훈학, 최수호","서울특별시 강남구 언주로 848 (신사동, 화경빌딩)",www.jewon1986.com,02-998-9672,02-998-6678,"빵류, 과자류, 당류, 초콜릿 도매업",1991-07-01,37.5260597,127.0337627
349,식품,퓨라토스코리아,피터데리메이커,서울특별시 강남구 봉은사로 413 (삼성동) 백영삼릉빌딩 7층,www.puratos.com/en/,02-554-3293,02-501-3287,"빵류, 과자류, 당류, 초콜릿 도매업",1982-02-01,37.5110146,127.0452396
350,식품,하이덱스스토리지,방현우,"전라북도 군산시 장산로 178 (소룡동, 한영)",,0634680116,0634688996,"빵류, 과자류, 당류, 초콜릿 도매업",1999-01-04,35.9762825,126.6099359
351,식품,한국로투스,"차호승, 바트바우웬스",경기도 고양시 일산동구 장항로 371 (장항동),www.lotuskorea.co.kr,031-902-8011,031-902-8015,"빵류, 과자류, 당류, 초콜릿 도매업",1989-10-07,37.6475512,126.7609331
352,식품,경일푸드,김성희,경기도 시흥시 군자로10번길 14-2 (월곶동),,031-312-6262,031-313-6262,낙농품 및 동ㆍ식물성 유지 도매업,2016-08-01,37.3825373,126.7602635
353,식품,로브,주성완,"서울특별시 종로구 사직로8길 34 831호 (내수동, 경희궁의아침3단지)",,02-552-0804, ,낙농품 및 동ㆍ식물성 유지 도매업,2007-04-05,37.5735869,126.9720944
354,식품,롯데나뚜루,이은학,서울특별시 영등포구 양평동5가 21번지,www.natuur.co.kr,02-2670-6433,02-2670-6868,낙농품 및 동ㆍ식물성 유지 도매업,2011-10-01,37.5373768,126.8928606
355,식품,범호통상,윤홍묵,경기도 용인시 처인구 포곡읍 한금로 153 (금어리),,031-702-5274,031-706-5274,낙농품 및 동ㆍ식물성 유지 도매업,2001-10-25,37.2670061,127.231554
356,식품,베스트로,부종일,"경기도 과천시 관문로 166 (중앙동, 주공아파트) b12호",www.ibestro.com/,02-502-0447,02-502-0448,낙농품 및 동ㆍ식물성 유지 도매업,2005-12-12,37.4341857,126.9947358
357,식품,부국유통,이용규,서울특별시 강남구 학동로97길 74 (청담동) 삼오빌딩 2층,www.bukookfud.co.kr,02-548-6350,02-548-6351,낙농품 및 동ㆍ식물성 유지 도매업,1999-10-21,37.5242215,127.053053
358,식품,서린상사,정인숙,인천광역시 서구 간재울길 12 (검암동),,032-561-3350, ,낙농품 및 동ㆍ식물성 유지 도매업,2012-07-19,37.566011,126.6651958
359,식품,성규푸드시스템,"김현주, 김연조",경기도 남양주시 다산순환로 20 (다산동) 다산현대프리미어캠퍼스 aa동 8층 54호,성규푸드.com,031-572-0230,031-571-0231,낙농품 및 동ㆍ식물성 유지 도매업,2013-01-01,37.6125742,127.1517461
360,식품,썬리취,이용국,경기도 용인시 모현면 매산리 601-3,,031-339-4499, ,낙농품 및 동ㆍ식물성 유지 도매업,1994-03-24,37.32881220000001,127.2218701
361,식품,아이배냇,민병관,경기도 남양주시 진접읍 부마로 200-38 (부평리) 아이배냇,www.ivenet.co.kr,070-7609-7967,02-6499-3056,낙농품 및 동ㆍ식물성 유지 도매업,2012-05-30,37.76096039999999,127.1942208
362,식품,앤씨인터내셔널,남호성,"충청북도 음성군 금왕읍 초금로 771 ,775(오선리)",,043-881-9102, ,낙농품 및 동ㆍ식물성 유지 도매업,2020-03-23,36.9781535,127.5645318
363,식품,자람푸드시스템,전은정,경기도 이천시 호법면 중부대로 839-8 (안평리),경기도 이천시 호법면 안평리 108,0313218148,0313228149,낙농품 및 동ㆍ식물성 유지 도매업,2019-04-29,37.2447587,127.4249568
364,식품,케이씨인베스트먼트,김기호,"서울특별시 구로구 디지털로33길 11 (구로동, 에이스테크노8차)",,02-852-1007,02-852-0888,낙농품 및 동ㆍ식물성 유지 도매업,1998-08-18,37.4857156,126.8955092
365,식품,콩코드상사,"조민성, 김미자",서울특별시 강남구 밤고개로5길 11-4 (수서동) 진성빌딩 5층,,025583710,024453712,낙농품 및 동ㆍ식물성 유지 도매업,1995-06-03,37.4867483,127.1038556
366,식품,파르마코리아,이계원,"인천광역시 남동구 청능대로 583 (논현동, 중앙프라자) 902호",www.parmakorea.co.kr,032-327-7765,032-327-7769,낙농품 및 동ㆍ식물성 유지 도매업,2011-09-16,37.4013809,126.7239239
367,식품,푸드피아,이정민,"경기도 과천시 중앙로 408 (과천동, 골든빌딩)",,02-503-7788, ,낙농품 및 동ㆍ식물성 유지 도매업,2014-01-10,37.4736307,127.0430214
368,식품,퓨어랜드,송경수,"서울특별시 강남구 테헤란로 110 (역삼동, 켐브리지강남빌딩) 8층","서울시 강남구 테헤란로 110, 8층",070-5015-2505, ,낙농품 및 동ㆍ식물성 유지 도매업,2012-03-19,37.4980838,127.0293894
369,식품,피엔에스,김한규,경기도 시흥시 신천동 864-1,www.pizzafs.co.kr,031-313-4700,031-480-1802,낙농품 및 동ㆍ식물성 유지 도매업,1999-04-01,37.4343637,126.7887355
370,식품,해태아이스크림,김정태,경상북도 경산시 하양읍 대경로 541 (부호리),www.haitaiic.co.kr,080-505-6688,0502-790-7302,낙농품 및 동ㆍ식물성 유지 도매업,2020-01-02,35.9028163,128.7938448
371,식품,화인에프앤드비서비스,조성춘,서울특별시 강남구 언주로174길 27 4층 (신사동),,07046403954, ,낙농품 및 동ㆍ식물성 유지 도매업,2005-01-02,37.5282189,127.036178
372,식품,더쉐프,김태경,부산광역시 연제구 좌수영로 290 (연산동),www.tenpercentcoffee.com,051-995-7779,051-996-7779,조미료 도매업,2013-06-18,35.1883844,129.1101831
373,식품,예광인터내셔널,안철훈,"경기도 하남시 대청로 15  1512호(신장동, 오피스텔트레벨)",http:www.yekwang.kr,031-793-5370,031-793-5470,조미료 도매업,2000-12-12,37.5405795,127.2139261
374,식품,우리상사,구기운,충청남도 계룡시 두마면 왕대로 69-14 (왕대리),,042-824-1614,042-824-1618,조미료 도매업,2009-02-17,36.2583385,127.2778647
375,식품,지보단코리아,강현구,"서울특별시 서초구 마방로 60 (양재동, 동원에프앤비빌딩) 11,12층",https://www.givaudan.com/,02-2149-5800,02-2149-5805,조미료 도매업,1994-05-01,37.4771971,127.0436711
376,식품,크로바,권건형,경기도 남양주시 와부읍 궁촌로 34 (도곡리),www.yesclover.com,0315689807,0315678886,조미료 도매업,2008-09-01,37.5768486,127.2319938
377,식품,푸드힐,조성훈,"서울특별시 강서구 공항대로 212 (마곡동, 문영퀸즈파크11차) A동 1201호",www.foodheal.com,02-6093-3533,02-2659-3358,조미료 도매업,2018-02-13,37.5586746,126.831078
378,식품,풍년종합상사,손국진,광주광역시 북구 금재로 61 (북동),,0622256512,0622270095,조미료 도매업,2010-06-29,35.1567385,126.9103519
379,식품,호수,김홍락,"경기도 성남시 분당구 황새울로258번길 32 (수내동, 코리아나빌딩) 4층 403호",www.hosookorea.co.kr/main/?load_popup=1,031-719-5557,031-726-4447,조미료 도매업,2010-10-01,37.3793657,127.1160447
380,식품,인이스홀딩스,김용주,경기도 안성시 고삼면 범골길 116 (신창리),https://jadamsun.com,02-3477-7938,02-3477-7940,기타 가공식품 도매업,2012-06-08,37.0811918,127.239163
381,식품,젬마코리아,이우종,"서울특별시 영등포구 당산로 34 (문래동3가, 로데오왁쇼핑몰2층 204~212호)",www.gemmakorea.com,02-6929-1359,02-6929-2842,기타 가공식품 도매업,2009-06-01,37.5191247,126.8986088
382,식품,코맥스인터내셔널,김동일,"서울특별시 송파구 법원로 114 A동 1210호(문정동, 엠스테이트)",,02-448-6727,02-448-6729,기타 가공식품 도매업,2000-07-01,37.4816698,127.1206971
383,식품,키친스토리,고준영,"서울특별시 강남구 봉은사로 331 (논현동, SH타워) 7층",www.kitchenstory.kr/,025173250,025173020,기타 가공식품 도매업,2012-08-16,37.5102871,127.0429677
384,식품,트라이콤바이오,민병관,"서울특별시 송파구 백제고분로 488 (방이동, 호련빌딩) 2, 3층",,02-416-4523,02-416-4524,기타 가공식품 도매업,2001-07-26,37.5137772,127.114708
385,식품,퍼스카,이동준,"부산광역시 해운대구 센텀중앙로 90 (재송동, 큐비이센텀) 1101호",,070-4415-3087,0507-351-4963,기타 가공식품 도매업,2008-04-01,35.17549210000001,129.1260013
386,식품,펄세스,양승철,"경기도 고양시 일산동구 백마로 195 11층 11001-3호 (장항동, 엠시티타워&엠시티오피스텔)",,070-5015-4288, ,기타 가공식품 도매업,2015-09-04,37.6547974,126.7708416
387,식품,푸드누리,김영수,"서울특별시 송파구 백제고분로50길 35 106호 (방이동, 정원빌딩)",www.foodnuri.co.kr,02-3012-7530,02-3012-7531,기타 가공식품 도매업,2004-04-23,37.5134052,127.1186903
388,식품,푸드팜,"양인옥, 강중민",경기도 화성시 우정읍 버들로 899-109 (주)푸드팜,,031)311-0722,031)404-0726,기타 가공식품 도매업,2006-09-15,37.1170893,126.8103976
389,식품,피드네이처,김원태,"서울특별시 금천구 디지털로9길 99 2층 202호-씨(가산동, 스타밸리)",,0262652360, ,기타 가공식품 도매업,2017-07-05,37.4817019,126.8848789
390,식품,하늘빛식품,김해수,경기도 부천시 까치로 94 (작동),www.hnbfd.co.kr,032-673-2211,032-674-5533,기타 가공식품 도매업,1999-05-25,37.5139132,126.8065362
391,식품,한국마그나스,안영옥,"경기도 남양주시 늘을2로14번길 5 (호평동, 샤르망메디칼프라자) 7층 702호",,070-4907-3460,031-592-4659,기타 가공식품 도매업,1991-09-05,37.6541168,127.2445654
392,식품,한국바이오,지정근,경기도 평택시 서탄면 발안로 1198-7 (수월암리),,07047131801, ,기타 가공식품 도매업,2021-09-14,37.132317,127.0364718
393,식품,한국씨엔에스,승준호,인천광역시 서구 봉수대로 1274 (왕길동),,032-888-0077, ,기타 가공식품 도매업,2015-08-01,37.589568,126.6588253
394,식품,헬스하우스,김우형,서울특별시 동대문구 장한로 79 (장안동),health38401.cafe24.com/,02-926-3840,02-929-3840,기타 가공식품 도매업,2008-10-29,37.5681209,127.0686779
395,식품,화인비에스,최종원,"서울특별시 성동구 연무장길 76 6층 606호 (성수동2가, 성수AK밸리)",www.finebs.net,02-6953-8835, ,기타 가공식품 도매업,2009-10-20,37.5415238,127.0575655
396,식품,교원더오름,장평순,"서울특별시 중구 을지로 51 (을지로2가, 내외빌딩)",,02-397-2916, ,기타 가공식품 도매업,2018-02-15,37.5664794,126.9836634
397,식품,그린스토어,박영창,"경기도 성남시 분당구 느티로 16 (정자동, 젤존타워1)",www.green-store.co.kr,0317787844,0317187032,기타 가공식품 도매업,2011-03-29,37.3681714,127.1062847
398,식품,그린알로에,정광숙,광주광역시 동구 중앙로 209 (대인동),www.greenaloe,080-234-6588, ,기타 가공식품 도매업,1997-07-01,35.1516148,126.9171272
399,식품,글루업,박경준,서울특별시 강남구 압구정로30길 67 (신사동),,07049035750, ,기타 가공식품 도매업,2018-09-21,37.5229427,127.0292029
400,식품,나팔꽃에프앤비,김영옥 정명호,전라남도 신안군 안좌면 산두리길 86 (대리),napal.co.kr/,010-8624-5433,02-518-5455,기타 가공식품 도매업,2018-10-19,34.7173852,126.1761861
401,식품,네츄럴굿띵스,김수안,"서울특별시 마포구 동교로23길 26 (동교동, 일레븐나인) 3층",,070-7733-5993, ,기타 가공식품 도매업,2016-09-05,37.55721880000001,126.9203583
402,식품,노랑푸드,송민규,"서울특별시 강남구 삼성로85길 28 6~10층(대치동, 우전빌딩)",,1599-2527, ,기타 가공식품 도매업,2014-07-24,37.5048093,127.0549331
403,식품,농업회사법인농협식품,이석희,"서울특별시 마포구 신촌로12길 4 (동교동, 더피플빌딩) 2,3층",,02-2022-1555, ,기타 가공식품 도매업,2017-07-03,37.5562612,126.9324643
404,식품,대현에벤에셀,김춘호,서울특별시 동대문구 답십리로59길 12 2층(답십리동),,02-2212-5477,02-928-2904,기타 가공식품 도매업,2007-07-12,37.5732235,127.066093
405,식품,대흥푸드,유재일,경기도 하남시 감초로 75,,02-486-3540, ,기타 가공식품 도매업,2010-01-01,37.5208544,127.15952
406,식품,더씨에이치디,최상업,"서울특별시 서초구 강남대로 27 (양재동, AT센터) 1203호",,02-6300-2525,02-6300-2530,기타 가공식품 도매업,2004-08-01,37.4682561,127.0391414
407,식품,데이즈온,김윤세,"서울특별시 강남구 논현로 617 (논현동, 계현빌딩)",days-on.co.kr,02-591-5449,02-592-5449,기타 가공식품 도매업,2008-05-09,37.5087929,127.0328547
408,식품,동우농산,안선애,경기도 광주시 초월읍 무갑길124번길 14-7,www.greennuts.com,07088014666,0317634660,기타 가공식품 도매업,2000-04-01,37.4190006,127.321901
409,식품,두우리,유태준,"충청남도 천안시 동남구 정골2길 40 (구성동, 두우리)",,041-584-5733,041-584-5734,기타 가공식품 도매업,2004-04-20,36.7947906,127.1763436
410,식품,라바이오,박지예,"광주광역시 북구 용봉로 77 (용봉동, 전남대학교) 산학협력2호관 310A호",,070-5168-3470, ,기타 가공식품 도매업,2022-10-14,35.1755091,126.9071166
411,식품,레이델코리아,이병구,"서울특별시 서초구 강남대로39길 15-10 205호(서초동, 한라비발디스튜디오193)",www.raydel.co.kr,02-3473-2371,02-3473-2372,기타 가공식품 도매업,2007-12-21,37.4857057,127.0320277
412,식품,미래푸드시스템,이기현,서울특별시 강동구 성안로 12 (성내동),www.mfsystem.co.kr,1544-3318, ,기타 가공식품 도매업,2009-09-23,37.5249325,127.1295731
413,식품,미성패밀리,온재만,"서울특별시 송파구 삼학사로 89 (삼전동, 미성빌딩)",,02-415-8175, ,기타 가공식품 도매업,2001-03-16,37.5052091,127.0969381
414,식품,보하라,이정열,대구광역시 북구 노원로 204 (침산동),,0535739771,0535739773,기타 가공식품 도매업,2006-07-20,35.899521,128.5824065
415,식품,브랜탁코리아,"진현기, 베른하르타하클",경기도 과천시 찬우물로 24-4 (갈현동),whanee.com,02-509-7950,02-507-1395,기타 가공식품 도매업,1997-02-17,37.4172218,126.98513
416,식품,빅썸바이오,박지예,"경상남도 진주시 진주대로 501 (가좌동, 경상국립대학교가좌캠퍼스) C-204호",bigsomebio.com,070-5168-3470, ,기타 가공식품 도매업,2016-06-14,35.1530444,128.1010899
417,식품,삼경엠앤에스,김영현,서울특별시 강남구 논현로10길 6 (개포동),,02-578-8385,02-578-8381,기타 가공식품 도매업,2019-04-01,37.4936811,127.0726884
418,식품,삼경프라자,김영현,경기도 광주시 곤지암읍 새재길 78 (신촌리),,02-578-8385, ,기타 가공식품 도매업,1989-10-30,37.3339594,127.3978427
419,식품,삼봉,서인봉,경기도 파주시 산남로157번길 17 (산남동),,0319447405,0319417408,기타 가공식품 도매업,2018-12-28,37.6980637,126.7010949
420,식품,새안글로벌,김성훈,경기도 광주시 곤지암읍 오향길15번길 26-1 (오향리),,070-7436-3972, ,기타 가공식품 도매업,2011-06-28,37.3661786,127.3743109
421,식품,서일코퍼레이션,서병일,경기도 구리시 담터길32번길 10 (갈매동),,031-575-2393, ,기타 가공식품 도매업,2011-12-01,37.6398443,127.1149555
422,식품,성부상사,이기봉,경기도 남양주시 오남읍 진건오남로 622-19 (오남리),,031-571-8433,031-571-8166,기타 가공식품 도매업,2013-01-28,37.689079,127.2138694
423,식품,세미원푸드,김중우,"서울특별시 송파구 송파대로 201 (문정동, 송파테라타워2)A동 1306호",www.semiwon.co.kr,02-6912-7340,02-423-2883,기타 가공식품 도매업,2002-01-30,37.4874166,127.1200937
424,식품,셀로맥스,서정민,"경기도 용인시 기흥구 구성로 357 D동 710호 (청덕동, 용인테크노밸리)",www.cellromax.co.kr,0316621395,0312821395,기타 가공식품 도매업,2014-10-22,37.2913994,127.1480524
425,식품,솜인터내셔널,이학명,"경기도 용인시 처인구 모현읍 곡현로 506-2 (매산리, 에스티엘냉장)",www.sominternational.com,0313391133,0313391138,기타 가공식품 도매업,2009-09-25,37.32913970000001,127.2226295
426,식품,쓰리씨통상,장효겸,"서울특별시 강남구 논현로81길 9 4층(역삼동,부성빌딩)",www.threec.kr/,02-512-3696,02-543-8513,기타 가공식품 도매업,2001-02-10,37.4979928,127.0373525
427,식품,에머이,김명상,"서울특별시 종로구 삼일대로17길 52 4층(관철동, 삼보빌딩)",www.emoikorea.com,027337174,027227174,기타 가공식품 도매업,2016-09-13,37.56930680000001,126.9845875
428,식품,에버그린글로벌,박경우,"서울특별시 강남구 테헤란로 309 (역삼동, 삼성제일빌딩) 1305호",,02527330, ,기타 가공식품 도매업,2012-05-29,37.50351930000001,127.0444189
429,식품,에이스유통,안종일,경기도 하남시 샘재로119번길 31 (천현동)1.2층,www.xn--9t4b11d32atjr15b.com/index.php,02-471-1644,02-476-1372,기타 가공식품 도매업,2010-08-01,37.5306799,127.2126076
430,식품,에이치비에프앤비,김수영,"서울특별시 강남구 영동대로 511 (삼성동, 트레이드타워) 4601호",https://www.alvins.co.kr/,1544-6962,02-2071-3699,기타 가공식품 도매업,2020-12-31,37.51032379999999,127.0610228
431,식품,엠디웰아이엔씨,송광호,"서울특별시 강남구 봉은사로114길 12 (삼성동, 대웅제약빌딩)",,02-550-8959, ,기타 가공식품 도매업,2007-07-11,37.5143876,127.0654559
432,식품,영인코퍼레이션,이재학,"경기도 성남시 중원구 둔촌대로 388 (상대원동, 크란츠테크노) 1119호",www.yicorp.com,031-777-8766,031-777-8769,기타 가공식품 도매업,1996-08-03,37.432769,127.1596395
433,식품,영일,김세현,"서울특별시 금천구 가산디지털1로 128 (가산동, 에스티엑스브이타워) 20층01호",,02-855-4953,02-855-4937,기타 가공식품 도매업,2012-12-01,37.4772198,126.8837443
434,식품,예주나라,김광식,경기도 김포시 대곶면 대명항로 223-1 (율생리),,031-985-0211,031-985-0216,기타 가공식품 도매업,2007-04-25,37.6438683,126.5947797
435,식품,와이디에스,나용흠,경기도 이천시 백사면 이여로 260-13 (조읍리),,031-631-9442,031-631-9433,기타 가공식품 도매업,2005-06-21,37.325746,127.4810603
436,식품,와이즈벨류,유성현,부산광역시 해운대구 중동1로43번길 10 (중동),,0517420848,0517414312,기타 가공식품 도매업,2017-08-22,35.1618991,129.164051
437,식품,유한메디카,김상철,"서울특별시 동작구 노량진로 74 6층 (대방동, 유한양행)",www.yuhanmedica.co.kr/,02-834-2605,02-834-2608,기타 가공식품 도매업,1982-07-16,37.5127025,126.9331254
438,식품,이너스원,박찬주,"서울특별시 강남구 삼성로82길 15 (대치동,2층)",,02-3453-6141,02-3453-6860,기타 가공식품 도매업,2012-07-06,37.5053457,127.0589933
439,식품,이노와이즈인베스트먼트,명규만,"경기도 성남시 중원구 갈마치로 302 비동 1505호(상대원동, 성남우림라이온스밸리5차)",,031-778-6420,031-778-6419,기타 가공식품 도매업,2015-03-02,37.4403259,127.1726428
440,식품,이루에프씨,이문기,"서울특별시 강동구 양재대로89가길 34 (성내동, 천지빌딩 5층)",barunchicken.com/,02-486-3392,02-486-3394,기타 가공식품 도매업,2009-07-24,37.5251249,127.1341912
441,기타,대경상사,신상범,서울특별시 성북구 삼선동 5가 298-2,,02-924-4001,02-924-4005,담배 도매업,1967-11-23,37.5894519,127.0156825
442,기타,몬스,신종호,"인천광역시 서구 북항로32번안길 41 (원창동, 건원프라자) 402호",,070-4174-5610, ,담배 도매업,2020-06-01,37.5095283,126.6467094
443,기타,브리티쉬아메리칸토바코코리아,Tony Hayward,"서울특별시 강남구 테헤란로 152 (역삼동, 강남파이낸스센터)",,0221127100, ,담배 도매업,1990-10-01,37.4998097,127.0366289
444,기타,삼양인터내셔날,"허광수, 하영봉",서울특별시 종로구 계동길 31 보헌빌딩,www.samyangint.co.kr,02-3670-9613,02-3670-9620,담배 도매업,1986-04-15,37.5786446,126.9864406
445,기타,연일물산,정수영,서울특별시 종로구 북촌로1길 27 (안국동),,0232107743,027361017,담배 도매업,1985-04-10,37.5771319,126.9841995
446,기타,영유통,조하영,서울특별시 강남구 논형동 63-7,www.creamyoung.com,02-549-5210,02-515-5210,담배 도매업,1979-04-24,37.5205271,127.0339054
447,기타,쥴랩스코리아,정주영,"서울특별시 강남구 테헤란로 431 (삼성동, 라이언타워)",,00000000, ,담배 도매업,2018-12-28,37.5065995,127.0541343
448,기타,하카코리아,이충언,"부산광역시 해운대구 센텀중앙로 97 (재송동, 센텀스카이비즈) 3301호 3302호 3303호",,1599-7791, ,담배 도매업,2014-05-01,35.175102,129.1248658
449,기타,한국필립모리스,윤희경,"서울특별시 영등포구 국제금융로 10 (여의도동, 서울국제금융센터) 25층",,02-3707-0700,02-3783-0679,담배 도매업,1989-03-29,37.525219,126.926025
450,기타,한미상사,최철견,부산광역시 금정구 동천로7번길 20 (회동동),www.hanmi.co.kr,051-582-7776,051-581-6371,담배 도매업,1988-02-17,35.2277793,129.122069
451,기타,912엔터테인먼트,이기영,경기도 고양시 일산서구 덕산로195번길 137-17 (가좌동),www.912enter.com,031-919-9120,031-919-0912,음반 및 비디오물 도매업,2018-02-01,37.6988779,126.7195568
452,기타,미디어신나라,신옥희,경기도 용인시 수지구 문인로 16 (동천동),www.synnara.co.kr,031-262-9090,031-624-5473,음반 및 비디오물 도매업,1998-03-16,37.3338166,127.1017481
453,기타,소니뮤직엔터테인먼트코리아,쉬리다빌리팔라얌슈브라마니암,"서울특별시 서초구 강남대로 465 교보타워 B동 20층 (서초동, 교보생명보험(주)서초사옥)",www.sonymusic.co.kr,02-530-0900,02-530-0997,음반 및 비디오물 도매업,1989-12-15,37.50371,127.0241612
454,기타,신원데이터넷,"이미숙, 문영창","서울특별시 마포구 동교로25길 10 (동교동, 서일빌딩)2층",shinwon.co.kr,02-326-3535,02-326-0219,음반 및 비디오물 도매업,1993-04-01,37.5577349,126.9219737
455,기타,아이케이팝,이동호,서울특별시 영등포구 여의도동 17-26 삼환까뮤별관 7층,,031-906-0001,031-906-8700,음반 및 비디오물 도매업,2000-04-27,37.5276258,126.9165033
456,기타,어빌리티코리아,김진웅,경기도 고양시 일산서구 송파로 188-1 (가좌동) 어빌리티코리아,knpops.com/,070-7576-2794,070-7543-2794,음반 및 비디오물 도매업,2019-05-13,37.6992441,126.7171947
457,기타,엠앤올,"김무현, 이광용",서울특별시 서초구 서초동 1337-3 삼동빌딩 5층,www.mnall.com,02)3471-3944,02)3471-3646,음반 및 비디오물 도매업,2000-07-14,37.4916282,127.0290222
458,기타,엠케이미디어,이병기,서울특별시 서초구 서초대로 248 (서초동) 5층 524호,www.mk-media.co.kr,031-955-3755,031-955-3754,음반 및 비디오물 도매업,2015-02-01,37.4918632,127.0087794
459,기타,엠케이솔라,이진선,"서울특별시 강남구 도산대로 542 (청담동, 우산빌딩), 1201호",,02-553-5112, ,음반 및 비디오물 도매업,2010-10-28,37.5245818,127.0530151
460,기타,우일영상,박상헌,서울특별시 중구 남대문로 5가 526,없음,3443-0300,515-3040,음반 및 비디오물 도매업,1988-10-11,37.5564898,126.975197
461,기타,워너뮤직코리아,옹잉총,"서울특별시 송파구 올림픽로35다길 42 (신천동, 한국루터회관) 24층",,02-560-7911,02-560-7938,음반 및 비디오물 도매업,1989-01-10,37.5152933,127.1029866
462,기타,유니버설뮤직,양범준,서울특별시 강남구 논현로 653 (논현동)A&A 빌딩 4층,www.universalmusic.co.kr,02-2106-2003,02-547-0353,음반 및 비디오물 도매업,1990-04-09,37.5122115,127.0312166
463,기타,이엠아이뮤직코리아,김영인,서울특별시 강남구 신사동 665-1 한양타운 2층,www.emimusic.com,02-3449-9400,02-3445-4050,음반 및 비디오물 도매업,1988-10-14,37.5256089,127.0392909
464,기타,케이팝머치,송정현,"경기도 용인시 수지구 광교중앙로 338 (상현동, 광교우미뉴브) S동 203호",kpopmerch.com,010-3938-0925, ,음반 및 비디오물 도매업,2020-07-01,37.3002663,127.0704758
465,기타,크레센도,이범주,서울특별시 강남구 논현로97길 35 (역삼동) 1층,,010-8892-1910, ,음반 및 비디오물 도매업,2004-04-13,37.502532,127.0327819
466,기타,플레이컴퍼니,조형석,서울특별시 마포구 월드컵로 196 대명비첸시티오피스텔 4층,playcompany.kr,02-323-0882,02-326-0882,음반 및 비디오물 도매업,2012-06-01,37.5647965,126.9027444
467,기타,한국다까미야,다까미야 도시야끼,부산광역시 사상구 학장동 535-1,없음,(051)323-9794,(051)325-1446,음반 및 비디오물 도매업,1994-04-01,35.142635,128.9886855
468,기타,갓위더스,구성학,충청남도 보령시 대천동 378-13,,0419366894,0419356896,인삼식품 제조업,2003-10-07,36.35328200000001,126.5873103
469,기타,고려바이오홍삼,문병두,충청남도 금산군 부리면 신촌리 317,,041)751-3251,041)753-8893,인삼식품 제조업,2001-06-14,36.0838323,127.5736099
470,기타,고려인삼제조,노정진,경기도 평택시 청북면 청오로 358 (토진리),www.okinsam.com,031-374-8610,031-374-1920,인삼식품 제조업,1985-09-20,37.032425,126.9644295
471,기타,고제,설기원,충청남도 천안시 동면 송연리 174-1,www.koje.co.kr,02-2111-2000,02-3430-2039,인삼식품 제조업,1958-12-05,36.773035,127.3555249
472,기타,금양기업,임종기,경기도 김포시 장기동 333-4,,031-985-8883,031-996-1109,인삼식품 제조업,2000-08-20,37.6433403,126.6706113
473,기타,농업회사법인개성상인,나미리,서울특별시 마포구 새창로 11 13층 1309호(도화동),,02-715-0909,02-712-0908,인삼식품 제조업,2015-06-09,37.5424467,126.9513101
474,기타,농업회사법인백년에프엔지,길호성,"충청남도 금산군 추부면 숭암로 135 (장대리, ㈜백년에프엔지)",,041-754-3070,041-754-3071,인삼식품 제조업,2011-08-03,36.1840153,127.4856171
475,기타,농협홍삼,허정덕,충청북도 증평군 증평읍 중앙로 88 농협한삼인,www.hansamin.com,02-2144-7010,02-414-8964,인삼식품 제조업,2002-07-24,36.775314,127.570399
476,기타,뉴트렉스테크놀러지,김성한,"충청남도 금산군 추부면 숭암로 135 (장대리, 주식회사뉴트렉스테크놀로지)",,0316286190, ,인삼식품 제조업,2002-05-22,36.1840153,127.4856171
477,기타,다정,김철중,"충청북도 진천군 이월면 장수로 371 (사곡리, (주)다정)",dajungco@hanmail.net,043-533-9960,043-534-7669,인삼식품 제조업,1996-04-22,36.8916799,127.4231804
478,기타,동진제약,이홍렬,"충청남도 금산군 제원면 암질골길 23 (제원리, 동진제약)",www.idongjinkorea.com,041-751-9920,041-751-9921,인삼식품 제조업,2014-10-06,36.1150497,127.5435197
479,기타,미루삼십일호,전용준,"서울특별시 영등포구 의사당대로 97 14층(여의도동, 교보증권빌딩)",,0234533232,0234539119,인삼식품 제조업,2011-12-21,37.5225219,126.9244722
480,기타,씨제이웰케어,장승훈,"서울특별시 중구 세종대로 14 B동 5층,6층 (남대문로5가, 그랜드센트럴(GRANDCENTRAL))",,02-6078-3674,02-6078-3699,인삼식품 제조업,2022-01-03,37.557894,126.974058
481,기타,웰너스코리아,정영철,서울특별시 강남구 논현로28길 45 6층 웰너스코리아(주) (도곡동),www.wellnesskor.com,02-577-2585,02-577-2592,인삼식품 제조업,2014-05-01,37.4845868,127.0453121
482,기타,종근당건강,김호곤,"충청남도 당진시 송악읍 복운1길 30 (복운리, 종근당건강)",http://www.ckdhc.com/,02) 575-0100,02) 312-4375,인삼식품 제조업,1996-01-05,36.9201939,126.7805487
483,기타,진셍케이,정의석,"서울특별시 구로구 디지털로34길 55 1514호 (구로동, 코오롱싸이언스밸리2차)",ginsengk.net,02-866-5340,02-866-5370,인삼식품 제조업,2007-02-28,37.4842333,126.8992725
484,기타,한국인삼공사,허철호,대전광역시 대덕구 벚꽃길 71 한국인삼공사 (평촌동),www.kgc.co.kr,02-2189-3952,02-2189-3971,인삼식품 제조업,1999-01-01,36.4342174,127.429473
485,기타,한국인삼농업법인,이미예,충청남도 금산군 추부면 용천로 736,www.jasamin.co.kr,0147512612,0147512614,인삼식품 제조업,2010-11-10,36.1612082,127.4419102
486,기타,공정한착한커피,김신아,서울특별시 강남구 영동대로 602 6층 E43호(삼성동),,02-6207-7111, ,커피 및 차류 도매업,2020-07-10,37.5148855,127.0604126
487,기타,구일종합식품,김진완,"서울특별시 강동구 양재대로121길 7 (천호동, 거송빌딩) 301호",,024705319,024715319,커피 및 차류 도매업,2004-07-30,37.542299,127.1410842
488,기타,더벤티코리아,"박수암, 강삼남, 최준경","부산광역시 해운대구 센텀서로 30 (우동, 케이엔엔타워) 2507호",,051-518-0224,051-583-0224,커피 및 차류 도매업,2015-07-22,35.1717073,129.128603
489,기타,더젬코리아,김미희,부산광역시 해운대구 송정2로 27 더젬코리아,,051-583-5498,051-584-5414,커피 및 차류 도매업,2016-10-07,35.1928636,129.2065656
490,기타,뮤제오,서동의,"서울특별시 강서구 양천로 583 (염창동, 우림블루나인비즈니스센터) A동 609호",www.caffemuseo.co.kr,02-2607-0918,02-2607-0129,커피 및 차류 도매업,2006-04-21,37.5572518,126.864441
491,기타,미래에프앤지,하광,경기도 김포시 고촌읍 금포로 653 (향산리),,15440977, ,커피 및 차류 도매업,2010-08-01,37.6250896,126.7385723
492,기타,스위트컵,이경민,경기도 남양주시 진접읍 팔야로 149 (팔야리),www.sweetcup.co.kr,024681855,024681856,커피 및 차류 도매업,2016-06-23,37.7530268,127.2270504
493,기타,엠아이씨홀딩스,"송현근, 송창근","서울특별시 서초구 서초대로25길 32 (방배동, 엠아이빌딩)5층",,02-6249-6678, ,커피 및 차류 도매업,2012-02-06,37.4893387,126.9936505
494,기타,엠아이커피,송현근,"서울특별시 서초구 서초대로25길 32 (방배동, 엠아이빌딩)",,02-537-5013,02-537-5014,커피 및 차류 도매업,2009-03-05,37.4893387,126.9936505
495,기타,카페봄봄,이승은,"대구광역시 중구 동덕로 125 (삼덕동2가, 봄봄빌딩)",,0537567272,0537567373,커피 및 차류 도매업,2019-03-14,35.86545419999999,128.6026537
496,기타,커피에반하다,임은성,경기도 파주시 지목로 9 (신촌동) 2층,www.coffeebanhada.com,070-4923-3138,050703266259,커피 및 차류 도매업,2013-07-19,37.7260072,126.6924318
497,기타,케이에스에프,이희성,경기도 포천시 군내면 용정경제로1길 48-55 (용정리) 케이에스에프,www.ksfintl.com,0315319920,07082557979,커피 및 차류 도매업,2016-01-01,37.8773038,127.2010903
498,기타,한국커피물류,조승구,인천광역시 서구 북항로206번길 50 (원창동),incoffee@hanmail.net,0325568922,0325565440,커피 및 차류 도매업,2000-01-01,37.509049,126.6269144
499,기타,희천,"김대환, 김나미, 한정수",부산광역시 부산진구 중앙대로 950 (양정동) 9층,,051-931-2248, ,커피 및 차류 도매업,2015-11-16,35.174386,129.0727424
